county,state,fips,latitude,longitude
Los Angeles,California,6037,34.30828379,-118.2282411
Maricopa,Arizona,4013,33.34835867,-112.4918154
Cook,Illinois,17031,41.84144849,-87.81658794
Miami-Dade,Florida,12086,25.6112362,-80.55170587
Harris,Texas,48201,29.859013239676724,-95.39248055213362
Dallas,Texas,48113,32.76670599,-96.77796049999999
Riverside,California,6065,33.74314981,-115.9933578
San Bernardino,California,6071,34.84060306,-116.1774685
San Diego,California,6073,33.03484597,-116.73653259999999
Kings,New York,36047,40.6361825,-73.94935552
Queens,New York,36081,40.71088124,-73.81684712
Orange,California,6059,33.70147516,-117.76459979999998
Tarrant,Texas,48439,32.77143818,-97.29101614
Clark,Nevada,32003,36.21458855,-115.0130241
Broward,Florida,12011,26.15184651,-80.48725556
Bexar,Texas,48029,29.44928723,-98.52019748
Suffolk,New York,36103,40.88320119,-72.8012172
Nassau,New York,36059,40.74066522,-73.58941873
Bronx,New York,36005,40.85209301,-73.86282755
Wayne,Michigan,26163,42.28087094935622,-83.28501553218885
Philadelphia,Pennsylvania,42101,40.00338507,-75.1379271
Salt Lake,Utah,49035,40.66616532,-111.9216011
Palm Beach,Florida,12099,26.64676272,-80.46536002
Hillsborough,Florida,12057,27.9276559,-82.32013172
Orange,Florida,12095,28.51367621,-81.31799498
New York,New York,36061,40.76727260000001,-73.97152637
El Paso,Texas,48141,31.76980765,-106.2363275
Middlesex,Massachusetts,25017,42.48607732,-71.39049229
Westchester,New York,36119,41.16278376,-73.75741653
Franklin,Ohio,39049,39.96995815,-83.01115755
Hennepin,Minnesota,27053,45.00761521,-93.47694895
Santa Clara,California,6085,37.23104908,-121.6970462
Oakland,Michigan,26125,42.66090111,-83.38595416
Milwaukee,Wisconsin,55079,43.00486062,-87.96733172
Pima,Arizona,4019,32.0971334,-111.7890033
Cuyahoga,Ohio,39035,41.424119,-81.65918339
Mecklenburg,North Carolina,37119,35.24469268,-80.8317671
King,Washington,53033,47.49137892,-121.8346131
Kern,California,6029,35.34329425,-118.72777960000002
Sacramento,California,6067,38.45106826,-121.3425374
Bergen,New Jersey,34003,40.96010917,-74.07164325
Marion,Indiana,18097,39.78163624,-86.13826325
Gwinnett,Georgia,13135,33.96044201,-84.02137802
Duval,Florida,12031,30.33225875,-81.66976468
Fresno,California,6019,36.75733899,-119.6466953
Allegheny,Pennsylvania,42003,40.46809875,-79.98167747
St. Louis,Missouri,29189,38.63770039999999,-90.4458375
Fairfield,Connecticut,9001,41.26809896,-73.3881171
Macomb,Michigan,26099,42.69158356,-82.92752801
Providence,Rhode Island,44007,41.87064746,-71.57753536
Fulton,Georgia,13121,33.79216944,-84.46319413
Utah,Utah,49049,40.1166722,-111.6657662
Shelby,Tennessee,47157,35.1864775,-89.89692423
Essex,Massachusetts,25009,42.6687626,-70.94687179
Essex,New Jersey,34013,40.78681335000001,-74.24657979000001
Hidalgo,Texas,48215,26.394182170000004,-98.18299696
Suffolk,Massachusetts,25025,42.3279514,-71.07850442
Collin,Texas,48085,33.18820114,-96.57264367999998
Middlesex,New Jersey,34023,40.43629879,-74.41426991
DuPage,Illinois,17043,41.85116968,-88.08642662
New Haven,Connecticut,9009,41.4080325,-72.93620426
Davidson,Tennessee,47037,36.17007426,-86.78646055999998
Alameda,California,6001,37.64629437,-121.8929271
Erie,New York,36029,42.76249024,-78.73063652
Wake,North Carolina,37183,35.78879266,-78.65249174
Hudson,New Jersey,34017,40.73766234,-74.07515667
Oklahoma,Oklahoma,40109,35.55140095,-97.40716948
Prince George's,Maryland,24033,38.83070039,-76.8496441
Travis,Texas,48453,30.33432034,-97.7853562
Hartford,Connecticut,9003,41.80283011,-72.73103891
Jefferson,Kentucky,21111,38.18664655,-85.65931031
Pinellas,Florida,12103,27.931303489999998,-82.72239666
Ventura,California,6111,34.44465746,-119.0910613
Hamilton,Ohio,39061,39.19673558000001,-84.54502924
Jefferson,Alabama,1073,33.55554728,-86.89506300000001
Cobb,Georgia,13067,33.94243204,-84.57612549999999
Worcester,Massachusetts,25027,42.35026951,-71.90493363
Fairfax,Virginia,51059,38.83677558,-77.27565835999998
Denton,Texas,48121,33.20521901,-97.11691153
Will,Illinois,17197,41.44619267,-87.97862712
Ocean,New Jersey,34029,39.8895449,-74.28089251
Tulsa,Oklahoma,40143,36.11939621,-95.94013939
Monmouth,New Jersey,34025,40.26549699,-74.22240686
Greenville,South Carolina,45045,34.89502264,-82.37295012
Richmond,New York,36085,40.58582155,-74.14808598
Lee,Florida,12071,26.58410348,-81.88399313
San Joaquin,California,6077,37.93433732,-121.2730061
Denver,Colorado,8031,39.76018276,-104.8725695
Kent,Michigan,26081,43.03197711,-85.54934642
El Paso,Colorado,8041,38.83240149,-104.5251411
Passaic,New Jersey,34031,41.03238628,-74.29954144
Polk,Florida,12105,27.95027105,-81.69732947
Union,New Jersey,34039,40.65835409,-74.30680092
Douglas,Nebraska,31055,41.29518299,-96.15085305
Contra Costa,California,6013,37.91923498,-121.92895270000001
Montgomery,Maryland,24031,39.13676329,-77.20358245
Montgomery,Pennsylvania,42091,40.21053671,-75.36652295999998
Fort Bend,Texas,48157,29.52704478,-95.77219463
Monroe,New York,36055,43.14638895,-77.69322942
Lake,Illinois,17097,42.3224907,-88.00367925
DeKalb,Georgia,13089,33.76944049,-84.22396017
Bristol,Massachusetts,25005,41.79228404,-71.10872211
Baltimore,Maryland,24005,39.45784712,-76.62911955
New Castle,Delaware,10003,39.579926379999996,-75.64054974
Stanislaus,California,6099,37.55862499,-120.9970722
Arapahoe,Colorado,8005,39.64977461,-104.3353617
Adams,Colorado,8001,39.87432092,-104.3362578
Bucks,Pennsylvania,42017,40.33682119,-75.10836643
Johnson,Kansas,20091,38.88548175,-94.82250877
Kane,Illinois,17089,41.93842729,-88.42861412
Bernalillo,New Mexico,35001,35.05163625,-106.6703554
Polk,Iowa,19153,41.68679484,-93.57767461
Sedgwick,Kansas,20173,37.6842718,-97.4608198
Pierce,Washington,53053,47.03892768,-122.1405958
Lake,Indiana,18089,41.41874274,-87.38277575
Camden,New Jersey,34007,39.80343818,-74.96388753
Montgomery,Texas,48339,30.30079133,-95.50572772
Lancaster,Pennsylvania,42071,40.03904563,-76.24770128
Norfolk,Massachusetts,25021,42.16073095,-71.20530408
Pinal,Arizona,4021,32.90525627,-111.34494830000001
Ada,Idaho,16001,43.4526575,-116.24155159999998
Baltimore City,Maryland,24510,39.30211911,-76.61151011999999
Montgomery,Ohio,39113,39.75394919,-84.29050975
Ramsey,Minnesota,27123,45.01625271,-93.09872295
Hampden,Massachusetts,25013,42.13440424,-72.63235561
Delaware,Pennsylvania,42045,39.91680171,-75.40243663
Knox,Tennessee,47093,35.99508821,-83.94635435
Morris,New Jersey,34027,40.86095313,-74.54553709999998
Tulare,California,6107,36.220265579999996,-118.8020203
Lubbock,Texas,48303,33.61008596,-101.8204789
District of Columbia,District of Columbia,11001,38.90417773,-77.01655992
Plymouth,Massachusetts,25023,41.94070556,-70.80802822999999
Waukesha,Wisconsin,55133,43.01833055,-88.30431188
Jefferson,Colorado,8059,39.58635604,-105.2517692
Guilford,North Carolina,37081,36.07959450999999,-79.78824948
Summit,Ohio,39153,41.124647339999996,-81.53123079
Berks,Pennsylvania,42011,40.41570541000001,-75.92457766
Orange,New York,36071,41.40337468,-74.30240757
Richland,South Carolina,45079,34.01791263,-80.90267209
Jefferson,Louisiana,22051,29.74075478,-90.11115756
Osceola,Florida,12097,28.06312234,-81.14882926
Williamson,Texas,48491,30.64655664,-97.6004854
York,Pennsylvania,42133,39.9210089,-76.73040131
Rockland,New York,36087,41.15027894,-74.02560498
Dakota,Minnesota,27037,44.67172617,-93.06299363
Spokane,Washington,53063,47.62113146,-117.4046494
Webb,Texas,48479,27.7610369,-99.33237355
Dane,Wisconsin,55025,43.06601594000001,-89.41733797
Washoe,Nevada,32031,40.66562265,-119.66315940000001
Volusia,Florida,12127,29.05858895,-81.18263252
Prince William,Virginia,51153,38.70916224,-77.48713689
Hamilton,Tennessee,47065,35.17670231,-85.16652245
Burlington,New Jersey,34005,39.87681124,-74.66927768
Nueces,Texas,48355,27.736286,-97.54332849999999
Anne Arundel,Maryland,24003,39.00670238,-76.60329337
Charleston,South Carolina,45019,32.82487866,-79.96512315
Brevard,Florida,12009,28.29409504,-80.73091022
Monterey,California,6053,36.21862405,-121.2413397
Rutherford,Tennessee,47149,35.84591405,-86.4107263
St. Charles,Missouri,29183,38.77875680999999,-90.66662425
Pasco,Florida,12101,28.30810945,-82.40227529
Lucas,Ohio,39095,41.62101218,-83.65468618
Anoka,Minnesota,27003,45.274760150000006,-93.24604564999999
San Mateo,California,6081,37.4228808,-122.32755459999998
Mobile,Alabama,1097,30.78472347,-88.20842409
Cameron,Texas,48061,26.14524221,-97.48140372
Spartanburg,South Carolina,45083,34.92960077,-81.99225984
Allen,Indiana,18003,41.09194313,-85.06800636
Genesee,Michigan,26049,43.02244215,-83.70589709
Pulaski,Arkansas,5119,34.77054088,-92.31355101000001
East Baton Rouge,Louisiana,22033,30.53842039,-91.09777565
Galveston,Texas,48167,29.40167322,-94.90469073
Chester,Pennsylvania,42029,39.97291773,-75.74768357
Multnomah,Oregon,41051,45.54747959,-122.4169351
Manatee,Florida,12081,27.47196942,-82.31831044
Snohomish,Washington,53061,48.04615983,-121.7170703
Davis,Utah,49011,40.99001837,-112.1139997
Lehigh,Pennsylvania,42077,40.6154815,-75.59435245
Jackson,Missouri,29095,39.01002188,-94.34724536
Horry,South Carolina,45051,33.9212828,-78.99555293
Butler,Ohio,39017,39.44012838,-84.57388716
Onondaga,New York,36067,43.00491923,-76.19971155000002
Brazoria,Texas,48039,29.18757369,-95.44563172
Collier,Florida,12021,26.11091986,-81.34687065
Yuma,Arizona,4027,32.76895712,-113.90666740000002
San Francisco,California,6075,37.75215114,-122.4385672
St. Joseph,Indiana,18141,41.61756781,-86.29040834000001
Forsyth,North Carolina,37067,36.12859860999999,-80.25459052
Escambia,Florida,12033,30.67652764,-87.37284571
Hamilton,Indiana,18057,40.07306535,-86.05244729
Fayette,Kentucky,21067,38.03682250000001,-84.45576892
Virginia Beach,Virginia,51810,36.73285734,-76.04566934
Hillsborough,New Hampshire,33011,42.91537785,-71.7200253
Seminole,Florida,12117,28.7158582,-81.24060348
Northampton,Pennsylvania,42095,40.75182733,-75.30471829
Madison,Alabama,1089,34.76327133,-86.55069633
Brown,Wisconsin,55009,44.4526553,-88.00411844
Santa Barbara,California,6083,34.65329488,-120.0188492
Westmoreland,Pennsylvania,42129,40.31377979999999,-79.46615476
Winnebago,Illinois,17201,42.33641854,-89.16085327
Mercer,New Jersey,34021,40.28047017,-74.70479631
Sarasota,Florida,12115,27.18546175,-82.33174248
Solano,California,6095,38.26827353,-121.93571130000001
Lexington,South Carolina,45063,33.89665987,-81.27146426
Weld,Colorado,8123,40.55499405,-104.3929621
Stark,Ohio,39151,40.81482476,-81.36437305
Leon,Florida,12073,30.45955727,-84.27491114
Ottawa,Michigan,26139,42.95996802999999,-85.9969107
Merced,California,6047,37.18922369,-120.7209035
Marion,Florida,12083,29.212271129999998,-82.05803627
Luzerne,Pennsylvania,42079,41.17823008,-75.98447579
York,South Carolina,45091,34.97281497,-81.18085944
Minnehaha,South Dakota,46099,43.67441641,-96.7910885
Washington,Arkansas,5143,35.976844,-94.21800746000001
Atlantic,New Jersey,34001,39.47538693,-74.65848483
Lake,Florida,12069,28.762020690000003,-81.7125123
Cherokee,Georgia,13057,34.24393976,-84.47431861
Lancaster,Nebraska,31109,40.78416048999999,-96.68777155000001
Greene,Missouri,29077,37.2575872,-93.34230916
Cleveland,Oklahoma,40027,35.20413532,-97.32519562
Anchorage,Alaska,2020,61.14998174,-149.14269860000005
Madison,Illinois,17119,38.83042506,-89.90422563
Orleans,Louisiana,22071,30.06971951,-89.92660314999999
Sonoma,California,6097,38.52746428999999,-122.8862506
Yakima,Washington,53077,46.45738486,-120.7380126
Gloucester,New Jersey,34015,39.71581067,-75.13995546
Douglas,Colorado,8035,39.33133796,-104.930001
Cumberland,North Carolina,37051,35.04762133,-78.82623165
Somerset,New Jersey,34035,40.56465737,-74.61683016
Benton,Arkansas,5007,36.33644656,-94.25680816999999
Dutchess,New York,36027,41.76486060000001,-73.74356679
Elkhart,Indiana,18039,41.59761169000001,-85.85875695
McHenry,Illinois,17111,42.32451172,-88.45248227
Williamson,Tennessee,47187,35.89099229,-86.89281867
Imperial,California,6025,33.0393082,-115.3669042
St. Clair,Illinois,17163,38.46996033,-89.93063427
Chesterfield,Virginia,51041,37.373732079999996,-77.58680140000001
St. Lucie,Florida,12111,27.37763908,-80.47106649
Loudoun,Virginia,51107,39.08990083,-77.63481877
Brazos,Texas,48041,30.663644800000004,-96.30205577
Honolulu,Hawaii,15003,21.458031660000003,-157.97121819999995
Hall,Georgia,13139,34.32207823,-83.81896935999998
Larimer,Colorado,8069,40.66671597,-105.4625784
McLennan,Texas,48309,31.55255453,-97.20217694000002
Canyon,Idaho,16027,43.61970148,-116.70954990000001
Clayton,Georgia,13063,33.54187245,-84.35594188
Washington,Minnesota,27163,45.03864533,-92.88429635
Caddo,Louisiana,22017,32.57991587,-93.88375652
Gaston,North Carolina,37071,35.29373559,-81.17477045
Washington,Oregon,41067,45.55972701,-123.0955257
Washtenaw,Michigan,26161,42.253105,-83.83853204
St. Tammany,Louisiana,22103,30.40942847,-89.95642711
Sussex,Delaware,10005,38.66143781000001,-75.39031349
Tuscaloosa,Alabama,1125,33.28726072,-87.52556818
Dauphin,Pennsylvania,42043,40.41377078,-76.77993242
Clark,Washington,53011,45.77568046,-122.4829204
Henry,Georgia,13151,33.4533428,-84.14814659999998
Henrico,Virginia,51087,37.53460572,-77.39326555
Durham,North Carolina,37063,36.03638492,-78.87608330999998
Alachua,Florida,12001,29.67866525,-82.35928158000002
Lorain,Ohio,39093,41.29553751,-82.15083537
Shelby,Alabama,1117,33.26879845,-86.66232561
St. Louis City,Missouri,29510,38.63555736,-90.24349225
Racine,Wisconsin,55101,42.74753117,-88.05941254
Richmond,Georgia,13245,33.35777107,-82.07026432
Montgomery,Alabama,1101,32.2206831,-86.20969272
Dona Ana,New Mexico,35013,32.35275771,-106.8329387
Bell,Texas,48027,31.03736027,-97.4785025
Union,North Carolina,37179,34.98960527,-80.52955873000002
Ingham,Michigan,26065,42.59716886,-84.37472069
Cass,North Dakota,38017,46.93201724000001,-97.2444719
Albany,New York,36001,42.60060306,-73.97723916
Warren,Ohio,39165,39.42581994,-84.16557457
Lafayette,Louisiana,22055,30.2049055,-92.06959876
Sumner,Tennessee,47165,36.46824103,-86.45917204
Rockingham,New Hampshire,33015,42.98499744,-71.12883377
Boulder,Colorado,8013,40.09313619,-105.35467669999998
Outagamie,Wisconsin,55087,44.41578887,-88.46565023
St. Johns,Florida,12109,29.90096506,-81.43589967
Jefferson,Missouri,29099,38.25926778,-90.53870896
Mohave,Arizona,4015,35.70471703,-113.75779019999999
Placer,California,6061,39.06167234,-120.7240569
Chatham,Georgia,13051,32.00043026,-81.12489526
Marion,Oregon,41047,44.90287942,-122.5815117
Peoria,Illinois,17143,40.78702156,-89.76078901
Anderson,South Carolina,45007,34.51828081,-82.63959517
Calcasieu,Louisiana,22019,30.22931235,-93.35400434
Kalamazoo,Michigan,26077,42.24542231000001,-85.53038622
Ellis,Texas,48139,32.34894117,-96.79371840999998
Kings,California,6031,36.07409056,-119.8159973
Tippecanoe,Indiana,18157,40.38872739,-86.89413959
Forsyth,Georgia,13117,34.22604035,-84.12315129999998
Sarpy,Nebraska,31153,41.11314181,-96.11156432
Oneida,New York,36065,43.24375382,-75.43710392
Vanderburgh,Indiana,18163,38.02658833,-87.58763124
New London,Connecticut,9011,41.48896435,-72.10430976
Stearns,Minnesota,27145,45.55192576,-94.61078221
Mahoning,Ohio,39099,41.01631101,-80.77287029
DeSoto,Mississippi,28033,34.87625235,-89.99091418
Cabarrus,North Carolina,37025,35.3877799,-80.55267168
Johnston,North Carolina,37101,35.51745004,-78.36622717
Baldwin,Alabama,1003,30.72774991,-87.72207058000001
Winnebago,Wisconsin,55139,44.06886922000001,-88.64477096
San Luis Obispo,California,6079,35.38822029,-120.4039028
Saginaw,Michigan,26145,43.33433923,-84.05131209999999
Linn,Iowa,19113,42.07923082,-91.59809485
Chesapeake,Virginia,51550,36.67670048,-76.30545744
Hays,Texas,48209,30.05669873,-98.02944344
Lake,Ohio,39085,41.69710807,-81.23676539
Erie,Pennsylvania,42049,41.99253829,-80.03301954
Okaloosa,Florida,12091,30.691430279999995,-86.59267105
Champaign,Illinois,17019,40.13919438,-88.20046615
Montgomery,Tennessee,47125,36.49609412,-87.38550661
Hinds,Mississippi,28049,32.2656285,-90.44435448
Wyandotte,Kansas,20209,39.11727348,-94.76378225
Bay,Florida,12005,30.26548745,-85.62122584
Smith,Texas,48423,32.37474036,-95.2717568
Cumberland,Pennsylvania,42041,40.1625372,-77.26130755
Pitt,North Carolina,37147,35.59535426,-77.37353178
Jefferson,Texas,48245,29.8832777,-94.16434171
Scott,Iowa,19163,41.63935977999999,-90.61959493
Clermont,Ohio,39025,39.04847534,-84.15375786
Johnson,Texas,48251,32.37877812,-97.36615819
Niagara,New York,36063,43.19898042,-78.74777412
Frederick,Maryland,24021,39.47296601,-77.39999394
Catawba,North Carolina,37035,35.66211129,-81.2132617
Clay,Florida,12019,29.98319144,-81.85609986
Yavapai,Arizona,4025,34.59933926,-112.5538588
Pueblo,Colorado,8101,38.17359144,-104.5127437
New Hanover,North Carolina,37129,34.25758282,-77.87075626
Porter,Indiana,18127,41.45986947,-87.06848888
Wilson,Tennessee,47189,36.15496772,-86.29775884
Howard,Maryland,24027,39.25305293,-76.93126208
Iredell,North Carolina,37097,35.80950511,-80.8743128
Sangamon,Illinois,17167,39.75836914,-89.65872023
Pickens,South Carolina,45077,34.88807695,-82.72791551
Ouachita,Louisiana,22073,32.47645559,-92.15704172
Clackamas,Oregon,41005,45.18787398,-122.2179634
Kootenai,Idaho,16055,47.67282258,-116.7020872
Alamance,North Carolina,37001,36.0434701,-79.39976137
Delaware,Ohio,39041,40.27942393000001,-83.00457058
Kenosha,Wisconsin,55059,42.57639354,-88.04051686
Kent,Rhode Island,44003,41.67106337,-71.57641596
Santa Rosa,Florida,12113,30.693414500000006,-87.02458128
Broome,New York,36007,42.15903158,-75.81326086
Harrison,Mississippi,28047,30.51359752,-89.12467576
McLean,Illinois,17113,40.48996987,-88.84621113
Lackawanna,Pennsylvania,42069,41.43564672000001,-75.60379201
Boone,Missouri,29019,38.99186229,-92.30723574999999
Johnson,Indiana,18081,39.48994426,-86.10149107
St. Clair,Michigan,26147,42.92655373,-82.67937954
San Juan,Puerto Rico,72127,18.386933,-66.061128
Dorchester,South Carolina,45035,33.0794369,-80.40502651999999
Rock,Wisconsin,55105,42.67151616,-89.07147900000001
Kent,Delaware,10001,39.08646628,-75.56884914
St. Louis,Minnesota,27137,47.6048407,-92.46879855
Buncombe,North Carolina,37021,35.61113393,-82.53304999999999
Yellowstone,Montana,30111,45.93955949,-108.2691486
Coconino,Arizona,4005,35.83734043343348,-111.76818202489271
Norfolk,Virginia,51710,36.89934014000001,-76.26420872
Florence,South Carolina,45041,34.02361754,-79.70189312
Berkeley,South Carolina,45015,33.20222596,-79.94654523
Washington,Pennsylvania,42125,40.192088690000006,-80.24582867
Benton,Washington,53005,46.23946995,-119.5120834
Onslow,North Carolina,37133,34.72607366,-77.42908179
Midland,Texas,48329,31.86904128,-102.0315682
Hendricks,Indiana,18063,39.76719009,-86.51037283
Shawnee,Kansas,20177,39.04100763,-95.75572640000001
Potter,Texas,48375,35.40133773,-101.893964
Butler,Pennsylvania,42019,40.91152759,-79.91351055
Scott,Minnesota,27139,44.6490231,-93.53340251
Ector,Texas,48135,31.86898877,-102.5429428
Aiken,South Carolina,45003,33.54338026,-81.63645384
Canadian,Oklahoma,40017,35.5426055,-97.98465569
Paulding,Georgia,13223,33.91969522,-84.86848792
Sullivan,Tennessee,47163,36.51240691,-82.30412917
Cumberland,Maine,23005,43.8370751,-70.37226999
Tazewell,Illinois,17179,40.50716185,-89.51404662000002
Rowan,North Carolina,37159,35.64003916,-80.52446628
Mesa,Colorado,8077,39.01787887999999,-108.469799
Cumberland,New Jersey,34011,39.37199394,-75.10712559
Columbia,Georgia,13073,33.54534185,-82.263524
Beaufort,South Carolina,45013,32.39226291,-80.72619758
Richmond City,Virginia,51760,37.53255773,-77.47966921000001
Randall,Texas,48381,34.96585996,-101.89713219999999
Davidson,North Carolina,37057,35.79115496,-80.21256572
Whitfield,Georgia,13313,34.80987459,-84.96093476
Tom Green,Texas,48451,31.404644360000002,-100.462443
Washington,Wisconsin,55131,43.36863664,-88.22974712
Centre,Pennsylvania,42027,40.92058903,-77.82200624
Jasper,Missouri,29097,37.20351921,-94.34050458
Kenton,Kentucky,21117,38.93950319,-84.53241199
Muscogee,Georgia,13215,32.50931999,-84.87142262
Robeson,North Carolina,37155,34.64244496,-79.10250529999998
Livingston,Michigan,26093,42.60302282,-83.91297209
Navajo,Arizona,4017,35.39979062875537,-110.32033951630902
Licking,Ohio,39089,40.09136236,-82.48185785
Madera,California,6039,37.21513971,-119.76655890000002
Harford,Maryland,24025,39.55010644,-76.30775940000002
Fairfield,Ohio,39045,39.75107189,-82.63088163
Trumbull,Ohio,39155,41.31735028,-80.76109643
Kaufman,Texas,48257,32.599141700000004,-96.28734728
Marathon,Wisconsin,55073,44.89792533,-89.75863384
Wright,Minnesota,27171,45.17297924,-93.96234781
Warren,Kentucky,21227,36.99903045,-86.42672751
Lee,Alabama,1081,32.60154883,-85.35132246
Black Hawk,Iowa,19013,42.4704581,-92.30524729
Muskegon,Michigan,26121,43.29123859,-86.15176712
Santa Cruz,California,6087,37.05580291,-122.00665239999998
Parker,Texas,48367,32.77757172,-97.80500621
Lebanon,Pennsylvania,42075,40.36680311,-76.45651841
Bibb,Georgia,13021,32.80904227,-83.70489165
Burleigh,North Dakota,38015,46.97847375,-100.4645214
Blount,Tennessee,47009,35.68938198,-83.92847788
Taylor,Texas,48441,32.30163422,-99.89007449
Jackson,Michigan,26075,42.24807035,-84.42258681
San Juan,New Mexico,35045,36.506319949442066,-108.31901833905579
Medina,Ohio,39103,41.11770589,-81.89986209999998
Douglas,Georgia,13097,33.70291126,-84.77026156
Guadalupe,Texas,48187,29.58165339,-97.94786822
Sebastian,Arkansas,5131,35.19605503,-94.27162713
Beaver,Pennsylvania,42007,40.6825484,-80.34921611
Berrien,Michigan,26021,41.95447397,-86.41313079999998
Kanawha,West Virginia,54039,38.33860077,-81.52857054
Franklin,Pennsylvania,42055,39.92956518,-77.72157791
Monroe,Michigan,26115,41.92734151,-83.53749864
Saratoga,New York,36091,43.10904162,-73.86653895
Randolph,North Carolina,37151,35.71015088,-79.80570339
Greene,Ohio,39057,39.69116283,-83.89032084
Arlington,Virginia,51013,38.8767675,-77.10139853
Bradley,Tennessee,47011,35.15739424,-84.857186
Rock Island,Illinois,17161,41.46613806,-90.57042164
Woodbury,Iowa,19193,42.38979414,-96.0459439
Wichita,Texas,48485,33.98842886,-98.70410339999998
Clarke,Georgia,13059,33.95436462,-83.37124007
Bonneville,Idaho,16019,43.38713372,-111.6161537
Hernando,Florida,12053,28.55364461,-82.42700204
Bartow,Georgia,13015,34.23732119,-84.83887523
Houston,Georgia,13153,32.45802497,-83.66879087
Gallatin,Montana,30031,45.54486106,-111.1692571
Washington,Tennessee,47179,36.29472368,-82.49454720000001
Monroe,Pennsylvania,42089,41.05934058,-75.34031025
Cambria,Pennsylvania,42021,40.49527404,-78.71377428
Sheboygan,Wisconsin,55117,43.72099677,-87.94579284
Schuylkill,Pennsylvania,42107,40.70497338,-76.2150785
Calhoun,Alabama,1015,33.77483727,-85.82630386
Litchfield,Connecticut,9005,41.7937534,-73.2451475
Morgan,Alabama,1103,34.45500589,-86.85475946
Washington,Maryland,24043,39.60835778,-77.82002295
Johnson,Iowa,19103,41.67169354,-91.58754744
Kankakee,Illinois,17091,41.13746989,-87.86205334
Calhoun,Michigan,26025,42.24633834,-85.00493569
Bossier,Louisiana,22015,32.67932307,-93.60460151999999
Boone,Kentucky,21015,38.97065142,-84.72615357
Livingston,Louisiana,22063,30.44143993,-90.73061664
Comanche,Oklahoma,40031,34.65973764,-98.47195055
Coweta,Georgia,13077,33.35334302,-84.76129976
Newport News,Virginia,51700,37.08166899,-76.51754109
Clark,Ohio,39023,39.91592258,-83.78498252
Marin,California,6041,38.07122463,-122.7210631
Etowah,Alabama,1055,34.04567266,-86.04051873
Yolo,California,6113,38.68278902000001,-121.9018288
Sussex,New Jersey,34037,41.13891592,-74.69118243
Rankin,Mississippi,28121,32.26469147,-89.94537876
Lane,Oregon,41039,43.93727035,-122.847753
Barnstable,Massachusetts,25001,41.72980577999999,-70.28854339
Pennington,South Dakota,46103,44.0025835,-102.8240777
Ulster,New York,36111,41.89027881,-74.26252104
Fond du Lac,Wisconsin,55039,43.75354908,-88.48885325
Jackson,Mississippi,28059,30.54020656,-88.64184064
Craighead,Arkansas,5031,35.83018283,-90.63235729
Maury,Tennessee,47119,35.6187413,-87.07462443999998
Charlotte,Florida,12015,26.90131002,-81.92949121
Sevier,Tennessee,47155,35.78077323,-83.52244332
La Crosse,Wisconsin,55063,43.90632465,-91.11451093
Dubuque,Iowa,19061,42.46815348999999,-90.88181925
York,Maine,23031,43.47808377,-70.71052375
Blair,Pennsylvania,42013,40.47961444,-78.34917412
Fayette,Pennsylvania,42051,39.92041012,-79.64291195
Olmsted,Minnesota,27109,44.00374114,-92.40209944
Kendall,Illinois,17093,41.59081014,-88.42869583
Wood,Ohio,39173,41.362248269999995,-83.62285108
Tangipahoa,Louisiana,22105,30.62888673,-90.40664996
Portage,Ohio,39133,41.16793482,-81.19735782000001
Clark,Indiana,18019,38.48015445,-85.70510334
Madison,Indiana,18095,40.16143691,-85.71964711
Schenectady,New York,36093,42.81668777,-74.05278291
Faulkner,Arkansas,5045,35.14719007,-92.33717519
Lowndes,Georgia,13185,30.83568832,-83.27056716
Indian River,Florida,12061,27.69308961,-80.60556720999999
Martin,Florida,12085,27.0772071,-80.43109784000002
Ascension,Louisiana,22005,30.20406249,-90.91328409999998
Dodge,Wisconsin,55027,43.41576662,-88.70928178
Middlesex,Connecticut,9007,41.45949668,-72.53714864
Franklin,Washington,53021,46.53351425,-118.9018212
Berkeley,West Virginia,54003,39.46704621,-78.02414609
LaSalle,Illinois,17099,41.34426129999999,-88.88633881
Rapides,Louisiana,22079,31.19778499,-92.52997303
Saline,Arkansas,5125,34.64916145,-92.67583224
Butte,California,6007,39.66727762,-121.6005252
Vigo,Indiana,18167,39.42944561,-87.39169027
Shasta,California,6089,40.76391419,-122.0396884
Walworth,Wisconsin,55127,42.66858202,-88.54163073
Marshall,Alabama,1095,34.36975964,-86.30486727
Flathead,Montana,30029,48.29575866,-114.0520569
LaPorte,Indiana,18091,41.54366008,-86.74072187999998
McKinley,New Mexico,35031,35.58123705236052,-108.2620351716738
Monroe,Indiana,18105,39.16130004,-86.52414358
Sandoval,New Mexico,35043,35.68862401,-106.8687803
Cochise,Arizona,4003,31.87934684,-109.7516088
Floyd,Georgia,13115,34.26268279,-85.21577392
Harnett,North Carolina,37085,35.36731853,-78.87243571
Sherburne,Minnesota,27141,45.444472080000004,-93.77617511
Eau Claire,Wisconsin,55035,44.72661399999999,-91.28609183
Lycoming,Pennsylvania,42081,41.34310539,-77.06629984
Allen,Ohio,39003,40.77285242,-84.10802343
Alexandria,Virginia,51510,38.814003,-77.08183073
Matanuska-Susitna,Alaska,2170,62.31305045,-149.5741743
Rockwall,Texas,48397,32.89779518,-96.40771592
Putnam,Tennessee,47141,36.14005459,-85.50646123
Cleveland,North Carolina,37045,35.33553364,-81.55204486
Nash,North Carolina,37127,35.965756340000006,-77.98422508
Jackson,Oregon,41029,42.43201126,-122.72893089999998
Richland,Ohio,39139,40.77180308,-82.53799609999999
Madison,Tennessee,47113,35.61181957,-88.84076036
Citrus,Florida,12017,28.84804315,-82.47614748
Carroll,Georgia,13045,33.58138199,-85.07976677
Stafford,Virginia,51179,38.41758738,-77.45917053
Apache,Arizona,4001,35.395823020858366,-109.48828603991416
Wayne,North Carolina,37191,35.36438125,-78.00027268
Gregg,Texas,48183,32.47940482,-94.81591934999999
Newton,Georgia,13217,33.55514538,-83.84547140000001
Grayson,Texas,48181,33.62744998,-96.67753461
Comal,Texas,48091,29.80811278,-98.27647225
Dallas,Iowa,19049,41.68560356,-94.04127625
Bay,Michigan,26017,43.70639106,-83.98731479
Rensselaer,New York,36083,42.713481359999996,-73.51089874
Pottawattamie,Iowa,19155,41.33640314,-95.53907776
Allegan,Michigan,26005,42.59147037,-85.89102866
Thurston,Washington,53067,46.9291895,-122.8290656
Daviess,Kentucky,21059,37.73028906,-87.09019479999998
Macon,Illinois,17115,39.86064913,-88.96342505
Terrebonne,Louisiana,22109,29.37343766,-90.82626855
Delaware,Indiana,18035,40.22787247,-85.39732772
Charles,Maryland,24017,38.51092331,-76.98580666
Windham,Connecticut,9015,41.82972709,-71.98182316
Lancaster,South Carolina,45057,34.68270843,-80.70513032
Franklin,Missouri,29071,38.41127108,-91.07522826
Miami,Ohio,39109,40.0543329,-84.22871271
Houston,Alabama,1069,31.15197924,-85.29939599
Maverick,Texas,48323,28.7429195,-100.3157686
Walton,Georgia,13297,33.78017694,-83.73552314
Hampton,Virginia,51650,37.03513786,-76.35879121
Story,Iowa,19169,42.03621213,-93.46499005
Grand Forks,North Dakota,38035,47.92093639,-97.45450447
Rogers,Oklahoma,40131,36.37004356999999,-95.60406759
Carver,Minnesota,27019,44.82017001,-93.8009918
Putnam,New York,36079,41.42630093,-73.74965532
Sumter,South Carolina,45085,33.91826534,-80.37942316
Santa Fe,New Mexico,35049,35.50708973,-105.9774716
Garland,Arkansas,5051,34.57692074,-93.14921604
Laramie,Wyoming,56021,41.30702520000001,-104.6887497
Clay,Missouri,29047,39.31132056,-94.41850862
El Dorado,California,6017,38.77965956,-120.5233166
Howard,Indiana,18067,40.48527731,-86.11351892
Bayamon,Puerto Rico,72021,18.34946,-66.168435
Madison,Mississippi,28089,32.63389156,-90.03513564
Elmore,Alabama,1051,32.59785413,-86.14415284
Henderson,North Carolina,37089,35.33788927,-82.4766782
Lincoln,North Carolina,37109,35.48508185,-81.21740317
Barrow,Georgia,13013,33.99148694,-83.71436292
Lafourche,Louisiana,22057,29.52470226,-90.40976986
Limestone,Alabama,1083,34.81185586,-86.98310072
Spotsylvania,Virginia,51177,38.18574462,-77.655399
St. Clair,Alabama,1115,33.71902176,-86.31029372
DeKalb,Illinois,17037,41.89373302,-88.76958483
Eaton,Michigan,26045,42.59599185,-84.83740035
Burke,North Carolina,37023,35.74989637,-81.70755735
Washington,Rhode Island,44009,41.45961631,-71.61435303
Deschutes,Oregon,41017,43.91570171,-121.2289121
Lee,Mississippi,28081,34.291877500000005,-88.68149953999999
Strafford,New Hampshire,33017,43.291833,-71.02336013
Vermilion,Illinois,17183,40.18417171,-87.73384359
Napa,California,6055,38.507357510000006,-122.332839
Warren,New Jersey,34041,40.85951832999999,-74.99556527
Jackson,Georgia,13157,34.13794553,-83.56814788
Hardin,Kentucky,21093,37.697611099999996,-85.96319251
Cullman,Alabama,1043,34.13020303,-86.86888037
Ward,North Dakota,38101,48.223901690000005,-101.5436763
Robertson,Tennessee,47147,36.52454807,-86.87346725
Oconee,South Carolina,45073,34.75225169,-83.06742317
Wilson,North Carolina,37195,35.70625477,-77.917978
Whatcom,Washington,53073,48.82227976,-121.7490018
Hunterdon,New Jersey,34019,40.56335249,-74.91284156
Orangeburg,South Carolina,45075,33.4391073,-80.79886287
Buchanan,Missouri,29021,39.65816401,-94.80138942
St. Croix,Wisconsin,55109,45.03437474,-92.45000068
Twin Falls,Idaho,16083,42.354405119999996,-114.6685381
Bastrop,Texas,48021,30.10370699,-97.31206354
Mercer,Pennsylvania,42085,41.30248872,-80.25816981
Northumberland,Pennsylvania,42097,40.84785433,-76.70798222
Sutter,California,6101,39.03417539,-121.6945899
Jefferson,Wisconsin,55055,43.02054068,-88.77529134
Merrimack,New Hampshire,33013,43.29662971,-71.6811573
Adams,Pennsylvania,42001,39.87140411,-77.21610347000001
Kosciusko,Indiana,18085,41.24521668,-85.86312322
Tolland,Connecticut,9013,41.85853803,-72.3308481
Lauderdale,Alabama,1077,34.90171875,-87.65624729
Sumter,Florida,12119,28.70181754,-82.0794267
Madison,Kentucky,21151,37.71659336,-84.27220275
Starr,Texas,48427,26.56150059,-98.73892358
Cass,Missouri,29037,38.64789422,-94.353399
Carroll,Maryland,24013,39.56453592,-77.02373735
Caldwell,North Carolina,37027,35.95204977,-81.54799522
Cascade,Montana,30013,47.30797024,-111.3467922
Craven,North Carolina,37049,35.11833364,-77.08398081
Muskogee,Oklahoma,40101,35.61318461,-95.37802952
Montgomery,Virginia,51121,37.17746986000001,-80.37868691000001
Cole,Missouri,29051,38.50455671,-92.27860244
Monongalia,West Virginia,54061,39.63218457,-80.04766838
Douglas,Kansas,20045,38.88503636,-95.2925121
Lenawee,Michigan,26091,41.89475156,-84.06603727
Grant,Washington,53025,47.20753737,-119.4500749
Missoula,Montana,30063,47.03728583,-113.92135079999998
Brunswick,North Carolina,37019,34.070565,-78.22814204
Ozaukee,Wisconsin,55089,43.38352225,-87.94625009
Cape May,New Jersey,34009,39.15008829,-74.80170244
Victoria,Texas,48469,28.79780988,-96.96813006
Christian,Missouri,29043,36.9711783,-93.18537118
Jefferson,Arkansas,5069,34.26767081,-91.92619839
Lapeer,Michigan,26087,43.09052506,-83.22153148
Portsmouth,Virginia,51740,36.85914825,-76.35971629
St. Landry,Louisiana,22097,30.59724262,-92.00135806
Wayne,Ohio,39169,40.82925852,-81.88844833
Hampshire,Massachusetts,25015,42.33997957,-72.65898478
Fayette,Georgia,13113,33.41357794,-84.49089434
Chaves,New Mexico,35005,33.36406072,-104.4665365
Moore,North Carolina,37125,35.30885257,-79.48474178
Columbiana,Ohio,39029,40.76932373,-80.78094576
Cape Girardeau,Missouri,29031,37.38489388,-89.6843587
DeKalb,Alabama,1049,34.45946862,-85.80782906
St. Francois,Missouri,29187,37.81214171,-90.47598685
Chautauqua,New York,36013,42.22769210000001,-79.36691763
Manitowoc,Wisconsin,55071,44.11946801,-87.80928853
Muskingum,Ohio,39119,39.96575964,-81.94363275
Nassau,Florida,12089,30.61037141,-81.80297522
Bannock,Idaho,16005,42.67002716,-112.22333110000001
Cabell,West Virginia,54011,38.42424062,-82.23855912
Highlands,Florida,12055,27.34254618,-81.34071957
Kitsap,Washington,53035,47.63479026,-122.6436061
Orange,Texas,48361,30.11879481,-93.89412775
Adams,Illinois,17001,39.98815591,-91.18786813
Anderson,Tennessee,47001,36.12684348,-84.19965764
Campbell,Kentucky,21037,38.94384345,-84.37875208
Payne,Oklahoma,40119,36.07695283,-96.97584943999999
Lincoln,South Dakota,46083,43.27841182,-96.7203905
Angelina,Texas,48005,31.25457347,-94.60901486999998
Walker,Texas,48471,30.73872995,-95.57440968
Umatilla,Oregon,41059,45.59073056,-118.7353826
Hamblen,Tennessee,47063,36.21990035,-83.26586179000002
Carolina,Puerto Rico,72031,18.374986,-65.95683100000001
Pickaway,Ohio,39129,39.64170391999999,-83.0243386
Tuscarawas,Ohio,39157,40.44214695,-81.47226262
Marion,Ohio,39101,40.58610662,-83.15736305000001
Clearfield,Pennsylvania,42033,41.00110782,-78.47592663
Darlington,South Carolina,45031,34.33358335,-79.96027485
Roanoke City,Virginia,51770,37.27791025,-79.96189766
Hancock,Indiana,18059,39.82304555,-85.77566351
Reno,Kansas,20155,37.95230263,-98.08607292
Orange,North Carolina,37135,36.06092947,-79.12167935
Jones,Mississippi,28067,31.62257767,-89.16896899999999
Talladega,Alabama,1121,33.37823223,-86.16886178000001
Lea,New Mexico,35025,32.79215361,-103.4123733
Roanoke,Virginia,51161,37.26865804,-80.06396753
Pottawatomie,Oklahoma,40125,35.20614018,-96.94923008
Androscoggin,Maine,23001,44.1664747,-70.20380627
White,Arkansas,5145,35.25688493,-91.74908296
Surry,North Carolina,37171,36.41689489,-80.69102283
,Guam,66,13.4443,144.7937
Columbia,Florida,12023,30.22509788,-82.62160164
Glynn,Georgia,13127,31.23279254,-81.53811412
Greenwood,South Carolina,45047,34.15272415,-82.12715789
Wagoner,Oklahoma,40145,35.96024096,-95.51911308
Clay,Minnesota,27027,46.89289518,-96.48761922
Hanover,Virginia,51085,37.7583355,-77.49464673
Gordon,Georgia,13129,34.50487351,-84.87296253
Natrona,Wyoming,56025,42.96180148,-106.797885
Rice,Minnesota,27131,44.3543376,-93.29658715
Liberty,Texas,48291,30.15152688,-94.81205615
Bartholomew,Indiana,18005,39.207448649999996,-85.89558181
Pope,Arkansas,5115,35.44871474,-93.03212219
Sampson,North Carolina,37163,34.98820368,-78.36914061
Frederick,Virginia,51069,39.20172582000001,-78.25974949
Rockingham,North Carolina,37157,36.39593137,-79.77504841
Santa Cruz,Arizona,4023,31.52508998,-110.8479088
Fairbanks North Star,Alaska,2090,64.80726247,-146.5692662
Somerset,Pennsylvania,42111,39.97172723,-79.02699593
Erie,Ohio,39043,41.36796058,-82.62904521
Greene,Tennessee,47059,36.17470125,-82.84691273000001
Suffolk,Virginia,51800,36.70155394,-76.63603554000001
Walton,Florida,12131,30.64204028,-86.16935664
Val Verde,Texas,48465,29.89149232,-101.1525205
Wood,West Virginia,54107,39.20967886,-81.5162836
Stanly,North Carolina,37167,35.31647813,-80.25093221
Rockdale,Georgia,13247,33.65145002,-84.02202167
Forrest,Mississippi,28035,31.18961454,-89.25832496
Warrick,Indiana,18173,38.08922676,-87.2716085
Hall,Nebraska,31079,40.87257079,-98.50218293
Garfield,Oklahoma,40047,36.3791334,-97.78265516999998
Floyd,Indiana,18043,38.32117957,-85.90385377
Lonoke,Arkansas,5085,34.75392199,-91.88742356999998
Walker,Georgia,13295,34.73376362,-85.30165174
Chemung,New York,36015,42.13891056,-76.7638805
Bowie,Texas,48037,33.44626922,-94.41834132
Wicomico,Maryland,24045,38.37301947,-75.62705831
Wood,Wisconsin,55141,44.45537896,-90.04158335999999
Dougherty,Georgia,13095,31.53328528,-84.21722377
Chippewa,Wisconsin,55017,45.06939744,-91.28068855
Oldham,Kentucky,21185,38.397910890000006,-85.448222
Lawrence,Pennsylvania,42073,40.992062780000005,-80.33393706
Tooele,Utah,49045,40.44862644,-113.1295715
Butler,Kansas,20015,37.78134351,-96.83878537000001
Clinton,Michigan,26037,42.94400871,-84.60145248
Williamson,Illinois,17199,37.73033511,-88.92994027
Troup,Georgia,13285,33.03349196,-85.02812115
Flagler,Florida,12035,29.459335760000002,-81.31508595
Oswego,New York,36075,43.42778894,-76.14635194
Blue Earth,Minnesota,27013,44.03554215,-94.06699781
Laurel,Kentucky,21125,37.10975748,-84.11321778999998
Midland,Michigan,26111,43.64330771,-84.38804374
Kershaw,South Carolina,45055,34.33988254,-80.58763164
Crawford,Pennsylvania,42039,41.68447709,-80.10760592
Laurens,South Carolina,45059,34.48244419,-82.00490796
Wise,Texas,48497,33.21570665,-97.65460265
Chittenden,Vermont,50007,44.46322849,-73.08359212
Lynchburg,Virginia,51680,37.40021399,-79.19888138
Tipton,Tennessee,47167,35.501942,-89.73694895
Rutherford,North Carolina,37161,35.40114178,-81.92112099
Portage,Wisconsin,55097,44.47558711,-89.50152965
Iberia,Louisiana,22045,29.86803617,-91.75871777
Bullitt,Kentucky,21029,37.97162523,-85.68955617
Ontario,New York,36069,42.85145728,-77.30874425
Walker,Alabama,1127,33.80270512,-87.30027177
Coryell,Texas,48099,31.39078397,-97.79936155
Madison,Idaho,16065,43.78141028,-111.65384740000002
Leavenworth,Kansas,20103,39.20183497,-95.03620809
Lauderdale,Mississippi,28075,32.40419769,-88.66229662
Grant,Indiana,18053,40.51587228,-85.65468702
Autauga,Alabama,1001,32.53952745,-86.64408227
Crawford,Arkansas,5033,35.58928601,-94.2446814
Monroe,Florida,12087,25.20904673,-81.07812416
Whiteside,Illinois,17195,41.75509713,-89.91556058
Ashtabula,Ohio,39007,41.70860332,-80.74830218
Wayne,Indiana,18177,39.8633444,-85.01044989
Van Buren,Michigan,26159,42.25190229,-86.01939087
Gila,Arizona,4007,33.80190085,-110.8132779
Dickson,Tennessee,47043,36.14669837,-87.35891709
Creek,Oklahoma,40037,35.90230550999999,-96.37086027999999
Raleigh,West Virginia,54081,37.76936795,-81.2456041
Christian,Kentucky,21047,36.892678030000006,-87.49055367
Lewis and Clark,Montana,30049,47.12610041,-112.394698
Allegany,Maryland,24001,39.62357628,-78.69280486
Franklin,North Carolina,37069,36.081519,-78.28708884
Jackson,Alabama,1071,34.78144169,-85.99750489
Boone,Indiana,18011,40.0509304,-86.46841646
Hancock,Ohio,39063,41.00250487,-83.66838948
Blount,Alabama,1009,33.98210918,-86.56790593
Coffee,Tennessee,47031,35.49090731,-86.07311784
Newport,Rhode Island,44005,41.5642026,-71.26569799
Steuben,New York,36101,42.2689144,-77.3829924
McCracken,Kentucky,21145,37.05350953,-88.70445755
Eddy,New Mexico,35015,32.47167456,-104.3053527
Ross,Ohio,39141,39.33705391,-83.06000914
Wilkes,North Carolina,37193,36.2084135,-81.16232895
Chelan,Washington,53007,47.87046092,-120.6173956
Valencia,New Mexico,35061,34.71669834,-106.8103733
Rockingham,Virginia,51165,38.51006137,-78.87260325
Cumberland,Tennessee,47035,35.95271721,-84.99840585
Geauga,Ohio,39055,41.49952319,-81.17935342000001
Bulloch,Georgia,13031,32.39577406,-81.74811421
Boone,Illinois,17007,42.32359279,-88.82345779
Putnam,Florida,12107,29.60779729,-81.74230285
Crow Wing,Minnesota,27035,46.48096553,-94.06755609
Acadia,Louisiana,22001,30.2950649,-92.41419698
Georgetown,South Carolina,45043,33.43443342,-79.33202141
Morgan,Indiana,18109,39.47899078,-86.44573375
Carter,Tennessee,47019,36.28969086,-82.12588974
Bedford,Tennessee,47003,35.51123746,-86.45549096
Riley,Kansas,20161,39.28935726,-96.73420026
Sullivan,New York,36105,41.71579493,-74.76394559
Cowlitz,Washington,53015,46.19074720999999,-122.6782231
Kandiyohi,Minnesota,27067,45.1526059,-95.00586446
Bedford,Virginia,51019,37.3080028,-79.5281964
St. Lawrence,New York,36089,44.4976179,-75.06550039
Gibson,Tennessee,47053,35.99438059,-88.93358327
McMinn,Tennessee,47107,35.428126160000005,-84.61520715
Hood,Texas,48221,32.42990927,-97.83242023999999
Catoosa,Georgia,13047,34.89872298,-85.13757014
Carson City,Nevada,32510,39.15509045,-119.7480219
Kennebec,Maine,23011,44.40759555,-69.76738544
Pulaski,Kentucky,21199,37.10466131,-84.57629079
Berkshire,Massachusetts,25003,42.37428441,-73.20524838
Scioto,Ohio,39145,38.80270163,-82.98907345
Lowndes,Mississippi,28087,33.47386518,-88.44191529999998
Fremont,Colorado,8043,38.473623260000004,-105.4399667
Yuba,California,6115,39.26255932,-121.3535644
Calumet,Wisconsin,55015,44.0816316,-88.21780273
Harrisonburg,Virginia,51660,38.43542574,-78.87536254
Spalding,Georgia,13255,33.26310031,-84.28013991000002
Grand Traverse,Michigan,26055,44.69565624999999,-85.55585247
Jackson,Florida,12063,30.7954597,-85.21500423
Columbus,North Carolina,37047,34.26744084,-78.65801424
Shiawassee,Michigan,26155,42.95392800000001,-84.14585902
Colbert,Alabama,1033,34.69847452,-87.80168544
Indiana,Pennsylvania,42063,40.65241041,-79.08963285
Carbon,Pennsylvania,42025,40.91545395,-75.7068525
Lamar,Mississippi,28073,31.20572971,-89.5077704
Duplin,North Carolina,37061,34.93449805,-77.93140529
Roane,Tennessee,47145,35.84923189,-84.52458689
Saline,Kansas,20169,38.78369175,-97.65185177
Eagle,Colorado,8037,39.62754308,-106.6933637
Penobscot,Maine,23019,45.40194593,-68.65020455
Cayuga,New York,36011,42.91261714,-76.55731592
Cecil,Maryland,24015,39.56647682,-75.94627411
Isabella,Michigan,26073,43.64060976,-84.84664923
Carter,Oklahoma,40019,34.25103751,-97.28552484999999
Ionia,Michigan,26067,42.94502238,-85.07413319000001
Lafayette,Mississippi,28071,34.35687874,-89.48490961
Lincoln,Missouri,29113,39.05345619,-90.95588181
Hawkins,Tennessee,47073,36.44355426,-82.94885298000001
Jefferson,Tennessee,47089,36.04818632,-83.45148924
Caguas,Puerto Rico,72025,18.211615,-66.050779
Greene,Arkansas,5055,36.11735460000001,-90.55832668
Lenoir,North Carolina,37107,35.24032589999999,-77.64245615
Sauk,Wisconsin,55111,43.42574087,-89.94966132
St. Joseph,Michigan,26149,41.91441767,-85.52797979000002
Hunt,Texas,48231,33.12351514,-96.08551032
Marshall,Indiana,18099,41.32467367,-86.26185086999999
Loudon,Tennessee,47105,35.73939663,-84.31145275
Anderson,Texas,48001,31.81534745,-95.65354823
Ogle,Illinois,17141,42.04165196,-89.32184679
Dubois,Indiana,18037,38.36597551,-86.87924170000001
Cherokee,South Carolina,45021,35.05122251,-81.61828622
Bryan,Oklahoma,40013,33.96472458,-96.25903472
Chisago,Minnesota,27025,45.5021011,-92.90861945
Harrison,West Virginia,54033,39.2853852,-80.37919577
Garfield,Colorado,8045,39.59921777,-107.902708
Crittenden,Arkansas,5035,35.21247318,-90.30839405999998
Hale,Texas,48189,34.07044901,-101.8268114
Jefferson,New York,36045,44.04200959,-75.94653457
Belmont,Ohio,39013,40.01625942,-80.9924051
Union,Pennsylvania,42119,40.96188846,-77.05996014
Lee,North Carolina,37105,35.47623147,-79.17569362
Bradford,Pennsylvania,42015,41.78869215,-76.51570821999998
San Benito,California,6069,36.60308176,-121.069975
Waupaca,Wisconsin,55135,44.47068056,-88.96534501
Salem,New Jersey,34033,39.58719656,-75.34696629999998
Finney,Kansas,20055,38.04340344,-100.7381938
Lawrence,Tennessee,47099,35.21675201,-87.39787695
Taney,Missouri,29213,36.65465345,-93.04075153
Hardin,Texas,48199,30.33364686,-94.38931817
Montcalm,Michigan,26117,43.31082541,-85.15252824
Barron,Wisconsin,55005,45.42372700999999,-91.84833627
St. Mary's,Maryland,24037,38.30058422,-76.60629279999998
Henderson,Texas,48213,32.21128872,-95.85846587
Skagit,Washington,53057,48.48171488,-121.766131
Cass,Indiana,18017,40.761358349999995,-86.34830753
Armstrong,Pennsylvania,42005,40.81665618,-79.46290811
Grady,Oklahoma,40051,35.0167709,-97.88339847
Grundy,Illinois,17063,41.28569601,-88.41905692
Granville,North Carolina,37077,36.30337451,-78.65184241
Augusta,Virginia,51015,38.16404586,-79.12461614
Monroe,Tennessee,47123,35.44550387,-84.24902965
Barry,Michigan,26015,42.59513984,-85.30834519
Lamar,Texas,48277,33.66981763,-95.57404777
Navarro,Texas,48349,32.04620681,-96.47428766
Mississippi,Arkansas,5093,35.76271485,-90.05194370000002
Columbia,Wisconsin,55021,43.46492199,-89.33589004
Dearborn,Indiana,18029,39.14647946,-84.97333539
Henry,Indiana,18065,39.93029017,-85.39625719
Columbia,Pennsylvania,42037,41.04821986,-76.40565017
Otter Tail,Minnesota,27111,46.40846929,-95.70835255
Newton,Missouri,29145,36.90519407,-94.3394104
Union,Ohio,39159,40.30016061,-83.37239023
Pike,Kentucky,21195,37.47088263,-82.39487445
Warren,Iowa,19181,41.33559454,-93.56007641
Gadsden,Florida,12039,30.57796289,-84.61915824999998
Benton,Minnesota,27009,45.69804958,-93.99514135
Albemarle,Virginia,51003,38.02080697,-78.55481085
Atascosa,Texas,48013,28.89333001,-98.52730485
Noble,Indiana,18113,41.39672484,-85.41966713
Lassen,California,6035,40.67311306,-120.59350990000002
Vermilion,Louisiana,22113,29.83517605,-92.30292538
Clinton,Illinois,17027,38.607048760000005,-89.42385254
Wayne,New York,36117,43.15494365,-77.02976528
Ford,Kansas,20057,37.69200114,-99.88825298
Caldwell,Texas,48055,29.83668859,-97.61814775
Coles,Illinois,17029,39.51949084,-88.22358557
Grant,Wisconsin,55043,42.86717310000001,-90.7063218
Tehama,California,6103,40.12570935,-122.2370171
Lawrence,Ohio,39087,38.59743452,-82.53466552
Linn,Oregon,41043,44.48899494,-122.5373154
Cattaraugus,New York,36009,42.24778241,-78.67923096
Cherokee,Oklahoma,40021,35.90692775,-94.99980896
Edgecombe,North Carolina,37065,35.91230639,-77.59436892
Polk,Georgia,13233,34.00267074,-85.18677781
Halifax,North Carolina,37083,36.25669272,-77.6556109
Jefferson,Ohio,39081,40.38614126,-80.76259514
Le Flore,Oklahoma,40079,34.89851864,-94.70392124
Coffee,Alabama,1031,31.39932826,-85.98901039
Tuscola,Michigan,26157,43.46606813,-83.41897024999999
Knox,Illinois,17095,40.93148779,-90.21330340000002
Laurens,Georgia,13175,32.46325233,-82.92221316
St. Charles,Louisiana,22089,29.90709658,-90.35555967
Summit,Utah,49043,40.866881459999995,-110.9535882
Brown,South Dakota,46013,45.58994323,-98.35165355
Pittsylvania,Virginia,51143,36.81980341,-79.39731264
Clinton,Iowa,19045,41.89981633,-90.53275096
Warren,Tennessee,47177,35.6728299,-85.77969117
Graham,Arizona,4009,32.93166885,-109.8882178
St. Martin,Louisiana,22099,30.13112107,-91.61403569
Huron,Ohio,39077,41.14651175,-82.59867951
Pender,North Carolina,37141,34.52265624,-77.90352133
Cerro Gordo,Iowa,19033,43.08177563,-93.2612239
Dyer,Tennessee,47045,36.05931946,-89.41542855
Buffalo,Nebraska,31019,40.85486962,-99.07500296
Cass,Michigan,26027,41.91522292,-85.99405726999998
Walla Walla,Washington,53071,46.23040051,-118.4775539
Scott,Kentucky,21209,38.29622293,-84.5816631
Harrison,Texas,48203,32.54935988,-94.36934071
Suwannee,Florida,12121,30.197460660000004,-82.99099670000003
Sandusky,Ohio,39143,41.35624126,-83.137872
Genesee,New York,36037,43.0022601,-78.19135193
Mifflin,Pennsylvania,42087,40.61116939,-77.61070738
Washington,Mississippi,28151,33.28392041,-90.94196237
Darke,Ohio,39037,40.13412966,-84.6194517
Hot Spring,Arkansas,5059,34.31709259,-92.95396325
Coffee,Georgia,13069,31.54892966,-82.85492059999999
McClain,Oklahoma,40087,35.01123903,-97.44572302
Seneca,Ohio,39147,41.12351311,-83.12783209
Kay,Oklahoma,40071,36.81799745,-97.14421435
Morton,North Dakota,38059,46.71681782,-101.2822377
Shawano,Wisconsin,55115,44.78902246,-88.76443896
Lewis,Washington,53041,46.57756476,-122.3925769
Curry,New Mexico,35009,34.57421077,-103.3468876
Washington,Ohio,39167,39.45690571,-81.49121382
Putnam,West Virginia,54079,38.50782345,-81.9082131
Washington,Oklahoma,40147,36.71380786,-95.90514104
Fremont,Wyoming,56013,43.04183996,-108.6296893
McDowell,North Carolina,37111,35.67736232,-82.0482425
Carteret,North Carolina,37031,34.8932941,-76.54120135
Athens,Ohio,39009,39.33425634,-82.04278644
Chambers,Texas,48071,29.70972016,-94.67154501
Pettis,Missouri,29159,38.72798918,-93.28471706
Franklin,Tennessee,47051,35.15634626,-86.09201039
Webster,Iowa,19187,42.42853483,-94.17987389
Fayette,Tennessee,47047,35.19615831,-89.41399031999998
Herkimer,New York,36043,43.42034246,-74.96145307
Nacogdoches,Texas,48347,31.62017125,-94.61803994
Campbell,Wyoming,56005,44.248860820000004,-105.54744040000001
Bristol,Rhode Island,44001,41.71018079,-71.28652315
Mercer,West Virginia,54055,37.40481169,-81.11023141999999
Pontotoc,Oklahoma,40123,34.72959848,-96.68337199
Elko,Nevada,32007,41.14531606,-115.35776190000001
Sioux,Iowa,19167,43.08221074,-96.1767568
Huntingdon,Pennsylvania,42061,40.42162652,-77.97673273
Callaway,Missouri,29027,38.83674754,-91.92186505
Boyd,Kentucky,21019,38.36176608,-82.68652187
Dunn,Wisconsin,55033,44.94562799,-91.8962481
Jackson,Illinois,17077,37.78595185,-89.38232563
Oconto,Wisconsin,55083,45.02715345,-88.26807503
St. Mary,Louisiana,22101,29.69262097,-91.44702164
Newberry,South Carolina,45071,34.28629098,-81.59935761
Jackson,Indiana,18071,38.90915820000001,-86.03851889
Habersham,Georgia,13137,34.63331566,-83.53094677
Marquette,Michigan,26103,46.4338914,-87.64043701
Henry,Illinois,17073,41.3533994,-90.13296166
Shelby,Indiana,18145,39.52305623,-85.7915857
Auglaize,Ohio,39011,40.55998859,-84.22421429999999
Williams,North Dakota,38105,48.34522353,-103.4793387
Watauga,North Carolina,37189,36.23103603,-81.70033724
Murray,Georgia,13213,34.78897608,-84.74993177
Washington,Virginia,51191,36.72341572,-81.95666289
Nelson,Kentucky,21179,37.80335779,-85.4657193
Douglas,Wisconsin,55031,46.43222285,-91.91595768
Broomfield,Colorado,8014,39.95998786999999,-105.0566324
Pierce,Wisconsin,55093,44.71850291,-92.4224416
Vance,North Carolina,37181,36.36880673,-78.40670845
Henderson,Kentucky,21101,37.79344553,-87.57392021
Campbell,Virginia,51031,37.20553386,-79.09678609
Ware,Georgia,13299,31.05449097,-82.42224148
Nevada,California,6057,39.30394768,-120.7627281
Dodge,Nebraska,31053,41.58071748,-96.65598179
Tift,Georgia,13277,31.45743864,-83.5236119
Stark,North Dakota,38089,46.80851182,-102.6576326
Dale,Alabama,1045,31.43037123,-85.61095742
Hendry,Florida,12051,26.55386945,-81.16469006000001
Chesterfield,South Carolina,45025,34.64137396,-80.15640140000002
Stephens,Oklahoma,40137,34.48556989,-97.85141892
Branch,Michigan,26023,41.91600556,-85.05929476
Burnet,Texas,48053,30.78801353,-98.18188700000002
Livingston,Illinois,17105,40.89188292,-88.55784752000001
Hoke,North Carolina,37093,35.01888303,-79.23651674
Newaygo,Michigan,26123,43.554374,-85.80070107
Muscatine,Iowa,19139,41.48370744,-91.1121697
Maui,Hawaii,15009,20.86399628,-156.56890969999995
Johnson,Missouri,29101,38.74719601,-93.80691167999998
Crawford,Kansas,20037,37.50675523,-94.85245778
Marshall,Iowa,19127,42.03586837,-92.9990819
Mercer,Ohio,39107,40.54043046,-84.62912742
Woodford,Illinois,17203,40.78579374,-89.20973757
Bingham,Idaho,16011,43.21672879999999,-112.3978437
Clinton,New York,36019,44.74530905,-73.67875352
Bolivar,Mississippi,28011,33.79696941,-90.87372121
Colquitt,Georgia,13071,31.18810588,-83.7677946
Stephenson,Illinois,17177,42.35129217,-89.66259800000002
Goodhue,Minnesota,27049,44.40849741,-92.7234195
Polk,Wisconsin,55095,45.46130348,-92.44182875
Shelby,Kentucky,21211,38.21476019,-85.194223
Yamhill,Oregon,41071,45.233304489999995,-123.3086963
Richmond,North Carolina,37153,35.00417719,-79.74491009
Osage,Oklahoma,40113,36.62888819,-96.39635703999998
Macoupin,Illinois,17117,39.26119767,-89.92424028
Jessamine,Kentucky,21113,37.87119786,-84.58252003
Klamath,Oregon,41035,42.68762984,-121.64964609999998
Jefferson,West Virginia,54037,39.30776166,-77.86014147
Beaufort,North Carolina,37013,35.48531943,-76.84325809
Lawrence,Indiana,18093,38.84112637,-86.48361629
Fauquier,Virginia,51061,38.73564842,-77.80647472000001
Sweetwater,Wyoming,56037,41.65943896,-108.8827882
Delaware,Oklahoma,40041,36.40823634,-94.80325046
Shelby,Ohio,39149,40.33163494,-84.20258189
Effingham,Illinois,17049,39.05935711,-88.58969584
Douglas,Minnesota,27041,45.93348491,-95.45335469
Chatham,North Carolina,37037,35.70394416,-79.25541492
Monroe,Wisconsin,55081,43.94641218,-90.618819
Scott,Missouri,29201,37.05588075,-89.56474493
Wasatch,Utah,49051,40.33110236,-111.1691419
Hopkins,Kentucky,21107,37.30939024999999,-87.54670406000001
Culpeper,Virginia,51047,38.48199985,-77.95630870000002
Bedford,Pennsylvania,42009,40.00522157,-78.48998442
Mower,Minnesota,27099,43.67142874,-92.75234549
Marinette,Wisconsin,55075,45.38553432,-88.03324599999998
Effingham,Georgia,13103,32.36616021,-81.34280942
Howard,Texas,48227,32.30621324,-101.4356444
Lincoln,Louisiana,22061,32.6003154,-92.6659741
Wilson,Texas,48493,29.1732598,-98.08693082
Des Moines,Iowa,19057,40.92012606,-91.18326592
Pittsburg,Oklahoma,40121,34.92065823,-95.7513432
Panola,Mississippi,28107,34.36398677,-89.95064249
James City,Virginia,51095,37.31156958,-76.76950618
Oktibbeha,Mississippi,28105,33.42491685,-88.87905132
Henry,Virginia,51089,36.68542395,-79.87634026
Medina,Texas,48325,29.3557301,-99.11030298
Cheatham,Tennessee,47021,36.261362160000004,-87.08903581
Codington,South Dakota,46029,44.97788119,-97.18827677
Marion,West Virginia,54049,39.50984542,-80.24244659
Pearl River,Mississippi,28109,30.770909350000004,-89.58677275
Albany,Wyoming,56001,41.65498705,-105.7235415
Obion,Tennessee,47131,36.35732446,-89.14921589
Winona,Minnesota,27169,43.98772283,-91.78081305
Kenai Peninsula,Alaska,2122,60.24429722,-151.53888840000005
Itasca,Minnesota,27061,47.51009045,-93.63092229
Kerr,Texas,48265,30.06040006,-99.34930144
Marshall,Mississippi,28093,34.76216286,-89.50299462
Grays Harbor,Washington,53027,47.14003705,-123.7820567
Thomas,Georgia,13275,30.86392347,-83.91847289
Baldwin,Georgia,13009,33.06882326,-83.24701748
Humboldt,California,6023,40.69923009,-123.87604400000001
Knox,Ohio,39083,40.39830217,-82.42027563
Madison,New York,36053,42.91653905,-75.67266639
Hill,Texas,48217,31.99045053,-97.13423142999999
Russell,Alabama,1113,32.28725256,-85.18415324
Franklin,Illinois,17055,37.99189086,-88.92567818
Cocke,Tennessee,47029,35.92789139999999,-83.11828725
Marion,Illinois,17121,38.64963204,-88.91899208
Livingston,New York,36051,42.72596275,-77.77966158
Chattahoochee,Georgia,13053,32.34341231,-84.78809239
Barren,Kentucky,21009,36.96469836,-85.93338945
San Patricio,Texas,48409,28.00880118,-97.51763891
Danville,Virginia,51590,36.58022376,-79.40395668
Haywood,North Carolina,37087,35.55269063,-82.98196486
Washington,Louisiana,22117,30.85288548,-90.03866652
Chilton,Alabama,1021,32.85044126,-86.7173256
Gibson,Indiana,18051,38.30393723,-87.58054938
DeSoto,Florida,12027,27.18677893,-81.80941373
Van Zandt,Texas,48467,32.56483801,-95.83766469
Miller,Arkansas,5091,33.31403423,-93.89285258
Clinton,Indiana,18023,40.30319754,-86.47277257
Alexander,North Carolina,37003,35.922379600000006,-81.17751948
Warren,Mississippi,28149,32.35810271,-90.83352619
Madison,Ohio,39097,39.893810730000006,-83.40178317
Jefferson,Illinois,17081,38.29980057,-88.9240025
Camden,Missouri,29029,38.02199522,-92.76083747
Rusk,Texas,48401,32.10773545,-94.76176432
Dillon,South Carolina,45033,34.39007791,-79.37741872
Fulton,New York,36035,43.113639070000005,-74.41798804
Montgomery,Indiana,18107,40.04034823,-86.89335024
DeKalb,Indiana,18033,41.39804622,-84.99906934
Harrison,Indiana,18061,38.19467379,-86.10948271
Jim Wells,Texas,48249,27.73103938,-98.0904705
Isanti,Minnesota,27059,45.561812339999996,-93.29487635999999
Lincoln,Tennessee,47103,35.13738622,-86.58910106
Hillsdale,Michigan,26059,41.88753639,-84.59312019
Monroe,Illinois,17133,38.27594376,-90.17761038
Mendocino,California,6045,39.4381191,-123.3911313
Graves,Kentucky,21083,36.72292505,-88.65143315
Rhea,Tennessee,47143,35.60536161,-84.93076643
Ashland,Ohio,39005,40.84772277,-82.27280781
Brown,Texas,48049,31.77430356,-98.99907113
Tompkins,New York,36109,42.44945765,-76.47229843
Avoyelles,Louisiana,22009,31.07796211,-92.00079449
Wapello,Iowa,19179,41.03064984,-92.40954728
Whitman,Washington,53075,46.90022523,-117.5241763
Putnam,Ohio,39137,41.02094889,-84.1336111
Marshall,Tennessee,47117,35.45798777,-86.76420988000001
Fulton,Ohio,39051,41.60213491,-84.12571393
Defiance,Ohio,39039,41.32398837,-84.49076944
Franklin,Alabama,1059,34.44235334,-87.84289504999998
Lyon,Kansas,20111,38.45576156,-96.15275715
McLeod,Minnesota,27085,44.82367677,-94.27287017
Logan,Oklahoma,40083,35.91899576,-97.44352845
Manassas,Virginia,51683,38.74643210000001,-77.48509905
Ohio,West Virginia,54069,40.0955451,-80.62203992
Cherokee,Texas,48073,31.837258,-95.16559897
Shenandoah,Virginia,51171,38.85905135,-78.56813762
Mayes,Oklahoma,40097,36.30179091,-95.23175116
Madison,Nebraska,31119,41.91676024,-97.60054810000001
Okeechobee,Florida,12093,27.386336199999995,-80.88944347
Butler,Missouri,29023,36.71462476,-90.40421163
Covington,Alabama,1039,31.2477854,-86.45050893
Pontotoc,Mississippi,28115,34.226046000000004,-89.03636807
Platte,Missouri,29165,39.38154439,-94.77068479
Washington,Texas,48477,30.21498498,-96.40946246
Wharton,Texas,48481,29.27765923,-96.22319248
Matagorda,Texas,48321,28.81955746,-96.01230293999998
Webster,Louisiana,22119,32.70847669,-93.33121835
Buena Vista,Iowa,19021,42.73545875,-95.15100162
Chester,South Carolina,45023,34.69249168,-81.15832159999998
Sanilac,Michigan,26151,43.42406072,-82.82055898
Guaynabo,Puerto Rico,72061,18.345114,-66.11452299999999
Montgomery,New York,36057,42.90123494,-74.44011632
Erath,Texas,48143,32.23602653,-98.21773417
Morrison,Minnesota,27097,46.01265363,-94.27341528000001
Tuolumne,California,6109,38.02644018,-119.9525093
Calvert,Maryland,24009,38.53961642,-76.56820632
Weakley,Tennessee,47183,36.29896232,-88.71990865
Brookings,South Dakota,46011,44.36974375,-96.79079945
Stokes,North Carolina,37169,36.4017975,-80.23893369
Ottawa,Oklahoma,40115,36.83532655,-94.81011909
Jasper,Iowa,19099,41.68576082,-93.05567785
Waller,Texas,48473,30.010584470000005,-95.99011759
Sequoyah,Oklahoma,40135,35.49447108,-94.75463784999998
Campbell,Tennessee,47013,36.40355516,-84.15108559999999
Franklin,Kentucky,21073,38.2379395,-84.87962551
Lee,Illinois,17103,41.74583951,-89.29977132
Scotts Bluff,Nebraska,31157,41.85070896,-103.70809860000001
Liberty,Georgia,13179,31.82588896,-81.49251135
Monroe,Mississippi,28095,33.89236763,-88.4808438
Davie,North Carolina,37059,35.93099927,-80.54496571
Belknap,New Hampshire,33001,43.51637314,-71.41684235
Randolph,Illinois,17157,38.05095369,-89.82512254
Natchitoches,Louisiana,22069,31.72321584,-93.09816516
Union,Mississippi,28145,34.49162015,-89.00776006
Silver Bow,Montana,30093,45.90018933,-112.6620092
Tallapoosa,Alabama,1123,32.86698258,-85.79833053
Platte,Nebraska,31141,41.57246836,-97.52144359
La Plata,Colorado,8067,37.28632032,-107.8429014
Titus,Texas,48449,33.21339719,-94.96797273
Wayne,Pennsylvania,42127,41.64938475,-75.29956506
St. Bernard,Louisiana,22087,29.87761636,-89.51887093
Yadkin,North Carolina,37197,36.16222629,-80.66239436
Union,Arkansas,5139,33.16887091,-92.59746952
Webster,Missouri,29225,37.2813734,-92.876329
Williamsburg,South Carolina,45089,33.62190129,-79.72767442
Camden,Georgia,13039,30.92951916,-81.66601818
Franklin,Virginia,51067,36.99536167,-79.88023649000002
Venango,Pennsylvania,42121,41.40323442,-79.75845449
Gratiot,Michigan,26057,43.29265605,-84.60505416
Huron,Michigan,26063,43.83353985,-83.04078453
Custer,Oklahoma,40039,35.63853802,-99.00170785
Neshoba,Mississippi,28099,32.75339664,-89.11726492
Nobles,Minnesota,27105,43.674346209999996,-95.75329575999999
Beltrami,Minnesota,27007,47.97373527,-94.93732139
Grafton,New Hampshire,33009,43.93779815,-71.82057197
Columbia,New York,36021,42.24819348,-73.63089095
Boone,Arkansas,5009,36.3084504,-93.09374925
Whitley,Indiana,18183,41.13863784,-85.50791236
Otero,New Mexico,35035,32.61348406,-105.7417604
Crawford,Ohio,39033,40.85065156,-82.91989099
Logan,Colorado,8075,40.7249637,-103.110817
Delta,Michigan,26041,45.90484910000001,-86.9080745
Whitley,Kentucky,21235,36.75700531,-84.14541217
Polk,Oregon,41053,44.90322804,-123.4128888
Fulton,Illinois,17057,40.47289135,-90.20862357
Giles,Tennessee,47055,35.20222469,-87.03992677999999
Huntington,Indiana,18069,40.82907273,-85.48822092
Pike,Pennsylvania,42103,41.33155042,-75.03208106
Charlottesville,Virginia,51540,38.03527919,-78.48569588
Oconee,Georgia,13219,33.83749973,-83.43679568
Escambia,Alabama,1053,31.1256789,-87.15918694
Plymouth,Iowa,19149,42.737633,-96.21366621
Brown,Ohio,39015,38.93416837,-83.86788395
Phelps,Missouri,29161,37.87736118,-91.79351727
Steuben,Indiana,18151,41.64423868,-85.00101094
Lincoln,Mississippi,28085,31.53288662,-90.45391915
Cowley,Kansas,20035,37.23781842,-96.83776647
McCurtain,Oklahoma,40089,34.11664328,-94.77222373
Logan,Illinois,17107,40.12581572,-89.36638784
Caddo,Oklahoma,40015,35.17364557,-98.37534464000001
Steele,Minnesota,27147,44.02240351,-93.22627088
Miami,Indiana,18103,40.76940965,-86.04525048
Independence,Arkansas,5063,35.74242707,-91.57001641
Douglas,Oregon,41019,43.27941273,-123.167291
Morgan,Illinois,17137,39.716545440000004,-90.20255104
Iberville,Louisiana,22047,30.25734305,-91.3499598
Petersburg,Virginia,51730,37.20530399,-77.39368102
Dakota,Nebraska,31043,42.39040144,-96.56656425
Toa Alta,Puerto Rico,72135,18.362406,-66.246616
Cortland,New York,36023,42.59509207,-76.07048931
Bethel,Alaska,2050,60.90980451,-159.8561831
Jasper,Indiana,18073,41.02078733,-87.11553318999998
Scotland,North Carolina,37165,34.8386299,-79.4757978
Okmulgee,Oklahoma,40111,35.64661916,-95.96432828
Cheshire,New Hampshire,33005,42.92015988,-72.25311043
Hancock,Mississippi,28045,30.418302230000002,-89.48851033
,Virgin Islands,78,18.3358,-64.8963
Polk,Minnesota,27119,47.77372465,-96.40134647
St. John the Baptist,Louisiana,22095,30.12597499,-90.4753503
Toa Baja,Puerto Rico,72137,18.431446,-66.213553
Logan,Ohio,39091,40.38996525,-83.76784341000001
Seward,Kansas,20175,37.19324632,-100.8507201
Preble,Ohio,39135,39.74202470000001,-84.64787018
Knox,Kentucky,21121,36.89225732,-83.85403396
Lincoln,Nebraska,31111,41.04658298,-100.7475374
Becker,Minnesota,27005,46.93479392,-95.67158144000001
Henderson,Tennessee,47077,35.65581134,-88.38600175
Perry,Pennsylvania,42099,40.40206612,-77.26297447
Lee,Iowa,19111,40.64181461,-91.48183025
Christian,Illinois,17021,39.54581621,-89.27780482
Tioga,New York,36107,42.16852837,-76.30835812
Oneida,Wisconsin,55085,45.70677897,-89.51944105
Grimes,Texas,48185,30.54579585,-95.98902499
Clinton,Ohio,39027,39.414858079999995,-83.80852286
McKean,Pennsylvania,42083,41.80938602,-78.56478358
Cooke,Texas,48097,33.63979567,-97.21240912
York,Virginia,51199,37.24374789,-76.54412815
Montgomery,Illinois,17135,39.23198845,-89.47809254
Teton,Wyoming,56039,43.93522482,-110.5890801
Rio Arriba,New Mexico,35039,36.51072137,-106.6931674
Knox,Indiana,18083,38.68861576,-87.4194665
Bureau,Illinois,17011,41.40385234,-89.5283051
White,Tennessee,47185,35.92929884,-85.45591799
Summit,Colorado,8117,39.63803232,-106.1150762
Bryan,Georgia,13029,32.00979311,-81.44002948
Polk,Missouri,29167,37.6162296,-93.39828174
Ellis,Kansas,20051,38.91458712,-99.31751551
Tazewell,Virginia,51185,37.12191123,-81.56685567999999
Nez Perce,Idaho,16069,46.32638236,-116.7500975
Amador,California,6005,38.44583082,-120.65696
Montrose,Colorado,8085,38.40214114,-108.26390220000002
Putnam,Indiana,18133,39.66437981,-86.84517605
Ottawa,Ohio,39123,41.53781826,-83.0940185
Chambers,Alabama,1017,32.91360079,-85.39072749
Greenup,Kentucky,21089,38.54332505,-82.9215658
Lawrence,Missouri,29109,37.10626634,-93.83293097
Carroll,Tennessee,47017,35.97366108,-88.45189331
Clinton,Pennsylvania,42035,41.23255967,-77.63785995000002
Harvey,Kansas,20079,38.04293781999999,-97.42747573
Douglas,Washington,53017,47.7361335,-119.692937
Laclede,Missouri,29105,37.65896829,-92.5888493
Colleton,South Carolina,45029,32.87582989,-80.67641292
Clark,Wisconsin,55019,44.73483377,-90.61207486
Evangeline,Louisiana,22039,30.729852479999998,-92.39915924
Worcester,Maryland,24047,38.21274277,-75.33200012
Snyder,Pennsylvania,42109,40.77129231,-77.06840691
Marion,Missouri,29127,39.80601912,-91.62203062
Howell,Missouri,29091,36.773838870000006,-91.88683935
Warren,New York,36113,43.56173026,-73.8433699
Macon,Tennessee,47111,36.53157855,-86.00778595
Trempealeau,Wisconsin,55121,44.30360275,-91.35893614
Josephine,Oregon,41033,42.3665549,-123.5561938
Marion,Iowa,19125,41.33445101000001,-93.09934783
Jackson,North Carolina,37099,35.28814273,-83.14093385
Green,Wisconsin,55045,42.6794956,-89.60243287
St. Francis,Arkansas,5123,35.02201976,-90.74828138
Pulaski,Missouri,29169,37.82462075,-92.20783203000002
Uvalde,Texas,48463,29.357396370000004,-99.76229172
Geary,Kansas,20061,38.99871131,-96.7577178
Oxford,Maine,23017,44.49952995,-70.75682123
Lyon,Minnesota,27083,44.41327865,-95.83806103
Garvin,Oklahoma,40049,34.70418038,-97.30811132
Wayne,Georgia,13305,31.5521809,-81.91894878
Levy,Florida,12075,29.31829741,-82.74007147
Prince George,Virginia,51149,37.18497668,-77.22922187
Wabash,Indiana,18169,40.84704239,-85.79328272
Baker,Florida,12003,30.33060121,-82.28467476000002
Malheur,Oregon,41045,43.193702699999996,-117.6227395
Dallas,Alabama,1047,32.32688101,-87.10866709999998
Hardin,Tennessee,47071,35.19732531,-88.18593755
Highland,Ohio,39071,39.1839264,-83.60331456
Lake,California,6033,39.10124298,-122.7536244
Calloway,Kentucky,21035,36.62093411,-88.2731593
Wyoming,New York,36121,42.70145109,-78.22199579
Wakulla,Florida,12129,30.16548905,-84.39895211
Marion,South Carolina,45067,34.07859748,-79.36400756
Allegany,New York,36003,42.25748406,-78.02750466
Fayette,West Virginia,54019,38.02974928,-81.08286634
Hardeman,Tennessee,47069,35.20772017,-88.99161161
Stutsman,North Dakota,38093,46.97962541,-98.95637318
Texas,Oklahoma,40139,36.74777635,-101.48897649999999
Bee,Texas,48025,28.41761668,-97.74215593
Carlton,Minnesota,27017,46.59180601,-92.67601019
Marshall,West Virginia,54051,39.86064362,-80.66591062
Clarke,Alabama,1025,31.680998589999998,-87.83548597
Upshur,Texas,48459,32.73706798,-94.93999853
Upson,Georgia,13293,32.87920671,-84.30024826
Leflore,Mississippi,28083,33.55545125,-90.29900733
Chenango,New York,36017,42.49430041,-75.60887553
Pickens,Georgia,13227,34.46589159,-84.46406611
Bladen,North Carolina,37017,34.61296243,-78.56180058999999
Wood,Texas,48499,32.78722382,-95.38236367999998
Person,North Carolina,37145,36.38989032,-78.97217358
Marlboro,South Carolina,45069,34.59905577,-79.67561152
Boyle,Kentucky,21021,37.62680923,-84.8633779
Floyd,Kentucky,21071,37.562139220000006,-82.74750924000001
Williams,Ohio,39171,41.56052014,-84.58429552
Baxter,Arkansas,5005,36.28784385,-92.33782872
Montgomery,Kansas,20125,37.19236568,-95.74329258
Ripley,Indiana,18137,39.10235626,-85.26212744
Clarendon,South Carolina,45027,33.66610974,-80.21647898
Freeborn,Minnesota,27047,43.67385583,-93.34884422
Fannin,Texas,48147,33.59564294,-96.10751083
Otsego,New York,36077,42.63492579,-75.03151402
Yell,Arkansas,5149,35.00292371,-93.41171338
Toombs,Georgia,13279,32.12059861,-82.32957247
Adams,Indiana,18001,40.7457653,-84.93671406
Champaign,Ohio,39021,40.13923427,-83.76875242
Hopkins,Texas,48223,33.14875072,-95.56351139
Pasquotank,North Carolina,37139,36.26723798,-76.25134778
Tate,Mississippi,28137,34.65133709,-89.94485778
Polk,Texas,48373,30.79472531,-94.8276624
Ponce,Puerto Rico,72113,18.059498,-66.613748
Greene,New York,36039,42.275797,-74.12384884
Henry,Tennessee,47079,36.331609060000005,-88.30121797
Sunflower,Mississippi,28133,33.60192578,-90.58882684
Bonner,Idaho,16017,48.29996017,-116.6017932
Montgomery,North Carolina,37123,35.33155144,-79.90416657
Pike,Mississippi,28113,31.17507789,-90.40392572
Luna,New Mexico,35029,32.18179341,-107.75088259999998
Hardee,Florida,12049,27.49293939,-81.80956574000001
Jefferson,Indiana,18077,38.78576239,-85.43633383
Lyon,Nevada,32019,39.01777974,-119.1870479
Greene,Pennsylvania,42059,39.85746531,-80.22357106
Pine,Minnesota,27115,46.12105238000001,-92.74070188
Juneau,Wisconsin,55057,43.92456975,-90.11120238999999
Kendall,Texas,48259,29.944141549999998,-98.71135880000001
Kittitas,Washington,53037,47.12521214,-120.679439
White,Indiana,18181,40.74911165,-86.86492015
Jefferson,Pennsylvania,42065,41.12913106,-78.9986361
McPherson,Kansas,20113,38.39184858,-97.64769869
Beauregard,Louisiana,22011,30.64836518,-93.34173616
Nicollet,Minnesota,27103,44.35291112,-94.24710352
Alcorn,Mississippi,28003,34.88084463,-88.57996173
Logan,West Virginia,54045,37.8299889,-81.93528571
Lincoln,Wisconsin,55069,45.33737523,-89.73411273
Marion,Alabama,1093,34.13697363,-87.88704173
Benton,Oregon,41003,44.49167306,-123.4316987
Lincoln,Oklahoma,40081,35.70270942,-96.8812462
Allen,Louisiana,22003,30.65385745,-92.82442028000001
Wise,Virginia,51195,36.9746148,-82.62410519
Sheridan,Wyoming,56033,44.79048913,-106.8862389
Madison,Georgia,13195,34.12920917,-83.21218732
Lauderdale,Tennessee,47097,35.75893438,-89.63015909999999
Marion,Tennessee,47115,35.12997174,-85.62265895
Hawaii,Hawaii,15001,19.60121157,-155.5210167
Ravalli,Montana,30081,46.08520862,-114.11891640000002
Jackson,Arkansas,5067,35.59802983,-91.21494602
Guernsey,Ohio,39059,40.05026529,-81.49248905
East Feliciana,Louisiana,22037,30.84425359,-91.04976723
Lincoln,Arkansas,5079,33.95317155,-91.74002806000001
Warren,Missouri,29219,38.76529479,-91.16124662
Davison,South Dakota,46035,43.67490933,-98.14458906
Jefferson Davis,Louisiana,22053,30.268967650000004,-92.81210004
Claiborne,Tennessee,47025,36.48319149,-83.65947309
Fayette,Illinois,17051,39.00072038,-89.02452658
Adair,Oklahoma,40001,35.88494195,-94.65859267
Scott,Tennessee,47151,36.42325673,-84.50360494
Vernon,Louisiana,22115,31.10884837,-93.18153838
Lafayette,Missouri,29107,39.06986886,-93.78076395999999
Latah,Idaho,16057,46.815878870000006,-116.71136979999999
Poinsett,Arkansas,5111,35.57433534,-90.66268713
Mecosta,Michigan,26107,43.64064262,-85.32463223
Butts,Georgia,13035,33.283094500000004,-83.95435040000002
Scott,Mississippi,28123,32.406704100000006,-89.53789439
White,Georgia,13311,34.64624278,-83.74905524999998
Perry,Illinois,17145,38.08510853,-89.36856219
Clarion,Pennsylvania,42031,41.19265812,-79.42413524
Jackson,Ohio,39079,39.01914254,-82.61818559999998
Taylor,Kentucky,21217,37.3677562,-85.3329931
Bell,Kentucky,21013,36.73355174,-83.67766671
Union,South Carolina,45087,34.68835752,-81.61730349
Wayne,West Virginia,54099,38.14901357,-82.42287993999999
Isle of Wight,Virginia,51093,36.90579348,-76.70842863
Woodward,Oklahoma,40153,36.42316318,-99.26283045
Willacy,Texas,48489,26.474117269999997,-97.61535848
Edgefield,South Carolina,45037,33.77221995,-81.96231108
Washington,New York,36115,43.31153794,-73.43043448
Macon,North Carolina,37113,35.14867843,-83.41696617
Stephens,Georgia,13257,34.55151201,-83.29405315
Iroquois,Illinois,17075,40.74717633,-87.82466784
Yazoo,Mississippi,28163,32.77890365,-90.39656148
Pike,Alabama,1109,31.80396383,-85.9408295
Lawrence,Alabama,1079,34.52041498,-87.31069453
Houghton,Michigan,26061,46.89988536,-88.68495385
Warren,Virginia,51187,38.90847745,-78.20280433
Jackson,Oklahoma,40065,34.58781741,-99.41138783999999
Hockley,Texas,48219,33.60771256,-102.3431676
Tioga,Pennsylvania,42117,41.77255149,-77.25433032
Adams,Mississippi,28001,31.47669768,-91.35326037
Orleans,New York,36073,43.25169770000001,-78.23200660000002
Mille Lacs,Minnesota,27095,45.93705297,-93.63236823
Yankton,South Dakota,46135,43.009244849999995,-97.39467635
Dawson,Georgia,13085,34.44244079,-84.16964071
Dunklin,Missouri,29069,36.27167174,-90.09122243
Overton,Tennessee,47133,36.34117832,-85.28989535
Muhlenberg,Kentucky,21177,37.21425819,-87.14632053
Brown,Minnesota,27015,44.24205652,-94.72562874
Bradford,Florida,12007,29.95079741,-82.16611613
Barry,Missouri,29009,36.70978521,-93.82919888
Gilmer,Georgia,13123,34.69316688,-84.45802506
Daviess,Indiana,18027,38.70186039,-87.07185406
Itawamba,Mississippi,28057,34.27993475,-88.36067330000002
Clark,Kentucky,21049,37.9689263,-84.14615986
Jefferson,Idaho,16051,43.82078483,-112.3131749
Simpson,Mississippi,28127,31.91282117,-89.91716179
Douglas,Nevada,32005,38.912862,-119.6171333
Lumpkin,Georgia,13187,34.57286511,-84.00425681
Nye,Nevada,32023,38.04264255999999,-116.47227019999998
Lawrence,South Dakota,46081,44.35919441,-103.7929428
Copiah,Mississippi,28029,31.86977774,-90.44565118
Coahoma,Mississippi,28027,34.22772299,-90.60415045
Jones,Iowa,19105,42.12118609,-91.13139641
Queen Anne's,Maryland,24035,39.06198912,-76.03530977
West Baton Rouge,Louisiana,22121,30.46058217,-91.30989571
Sabine,Louisiana,22085,31.56388699,-93.55433981
Wayne,Tennessee,47181,35.23868267,-87.78644456
Adams,Nebraska,31001,40.52449420000001,-98.50117804
Trujillo Alto,Puerto Rico,72139,18.336159,-65.99888399999999
Arecibo,Puerto Rico,72013,18.406631,-66.675077
Amherst,Virginia,51009,37.60308292999999,-79.14548696
Smyth,Virginia,51173,36.84455636,-81.53344948
Decatur,Georgia,13087,30.87967778,-84.57619536
Mineral,West Virginia,54057,39.41561583000001,-78.94104895
Le Sueur,Minnesota,27079,44.37136597,-93.72844721
Cassia,Idaho,16031,42.28347887999999,-113.6012409
Johnson,Arkansas,5071,35.56759135,-93.46036368
Perry,Ohio,39127,39.73508654999999,-82.23804971
Beadle,South Dakota,46005,44.41464384,-98.27858469
Wells,Indiana,18179,40.72934187,-85.22132966
Preston,West Virginia,54077,39.46770987,-79.66712803
Vega Baja,Puerto Rico,72145,18.428262,-66.397924
Henry,Iowa,19087,40.98767962,-91.54436349
Deaf Smith,Texas,48117,34.96522957,-102.6054267
Harlan,Kentucky,21095,36.85699301,-83.21899516
Palo Pinto,Texas,48363,32.75310985,-98.31319001
Logan,Kentucky,21141,36.85949479,-86.877635
Mason,Washington,53045,47.35007586,-123.1863685
McDonough,Illinois,17109,40.45674722,-90.67775541
Delta,Colorado,8029,38.86246243,-107.8631342
Winchester,Virginia,51840,39.17054517,-78.17325058
Tippah,Mississippi,28139,34.76872156,-88.90988194
Morrow,Ohio,39117,40.52363560000001,-82.7892599
Cibola,New Mexico,35006,34.91131525,-107.998876
De Soto,Louisiana,22031,32.05457447,-93.74130302
Carroll,Arkansas,5015,36.34038560000001,-93.54270261
Park,Wyoming,56029,44.52157546,-109.5852825
Wexford,Michigan,26165,44.33853602,-85.57712739
Beckham,Oklahoma,40009,35.26862449,-99.68128023
Decatur,Indiana,18031,39.30712658,-85.50087166
Greenbrier,West Virginia,54025,37.94636520000001,-80.45335881
Marshall,Kentucky,21157,36.88007070000001,-88.32803576000002
Hickman,Tennessee,47081,35.80609681,-87.47643507
Bremer,Iowa,19017,42.77461496,-92.31795937
Saline,Missouri,29195,39.13734288,-93.20259964
Seminole,Oklahoma,40133,35.16478725,-96.61686741
Dawson,Nebraska,31047,40.87028216,-99.8201461
Morehouse,Louisiana,22067,32.81686191,-91.80421614
Frio,Texas,48163,28.86751206,-99.10804207
McNairy,Tennessee,47109,35.17468549,-88.5647812
Chattooga,Georgia,13055,34.47197698,-85.34535662
Greene,Indiana,18055,39.03630547,-86.96223202
DeKalb,Tennessee,47041,35.97616272,-85.83689361
Carroll,Iowa,19027,42.03617207,-94.86032705
Accomack,Virginia,51001,37.76707161,-75.63234615
Cass,Minnesota,27021,46.95043611,-94.32603968
Elk,Pennsylvania,42047,41.42822061,-78.64524744
Prentiss,Mississippi,28117,34.61810501,-88.51986294
Todd,Minnesota,27153,46.06996225999999,-94.89785296
Fayette,Ohio,39047,39.56021306,-83.4562016
Montgomery,Kentucky,21173,38.03253032,-83.9145241
Randolph,West Virginia,54083,38.769899,-79.87919615
Door,Wisconsin,55029,44.958564579999994,-87.30002707
Dorchester,Maryland,24019,38.45413522,-76.02752426
Fayette,Indiana,18041,39.63684962,-85.17797541
Hancock,West Virginia,54029,40.51943859,-80.57461608
Sevier,Arkansas,5133,33.99780401,-94.2424869
Halifax,Virginia,51083,36.76654925,-78.93512622
Winston,Alabama,1133,34.15030532,-87.37325922
Limestone,Texas,48293,31.5454767,-96.58095443999999
Lewis,New York,36049,43.78441569999999,-75.44903992
Smith,Tennessee,47159,36.25359774999999,-85.95411046
Miami,Kansas,20121,38.56383358,-94.83832189000002
Audrain,Missouri,29007,39.215877,-91.84242682999998
Okanogan,Washington,53047,48.54855019,-119.7387224
Meade,South Dakota,46093,44.56676791,-102.7162741
Washington,Missouri,29221,37.96130078,-90.87948158000002
Perry,Kentucky,21193,37.25023553,-83.22922731
Labette,Kansas,20099,37.19113093,-95.29849679
Fayette,Texas,48149,29.87788372,-96.92076062
Oceana,Michigan,26127,43.64124435,-86.26726673
Hardin,Ohio,39065,40.66015414,-83.65929931
Lee,Georgia,13177,31.779330600000005,-84.14324252999998
Moore,Texas,48341,35.83769242,-101.8930281
Washington,Florida,12133,30.61359259,-85.66002461
Mingo,West Virginia,54059,37.730483510000006,-82.13338365
Nodaway,Missouri,29147,40.36079813,-94.88133008
Taylor,Florida,12123,30.04848048,-83.60445406
Dickinson,Michigan,26043,46.00999672,-87.86961634000001
Morgan,Colorado,8087,40.26279810000001,-103.8093302
Posey,Indiana,18129,38.02097333,-87.86480429
Gonzales,Texas,48177,29.456342060000004,-97.49424032
Henry,Ohio,39069,41.3339642,-84.06830637
Pointe Coupee,Louisiana,22077,30.714095020000002,-91.60209535
LaGrange,Indiana,18087,41.64232188,-85.42674232
Wythe,Virginia,51197,36.91582035,-81.07834059
Leake,Mississippi,28079,32.7536828,-89.52402044
Kewaunee,Wisconsin,55061,44.51727459,-87.61468385999999
Pulaski,Virginia,51155,37.06474963,-80.71229738
Marion,Mississippi,28091,31.23132643,-89.8209217
Jersey,Illinois,17083,39.08869046,-90.35393073
Jackson,Wisconsin,55053,44.31864893,-90.80566792
Carroll,Virginia,51035,36.73066666,-80.73455942
Clay,Kentucky,21051,37.16451126,-83.712575
Haywood,Tennessee,47075,35.58332824,-89.28536624999998
Peach,Georgia,13225,32.56934316,-83.82937
Randolph,Missouri,29175,39.44007257,-92.4971374
Monroe,Georgia,13207,33.014289,-83.92097166000002
Holmes,Ohio,39075,40.56163713,-81.92635677
Miller,Missouri,29131,38.21450288,-92.42610898
Scott,Indiana,18143,38.68672078,-85.74627859
Stone,Missouri,29209,36.75000327,-93.45256475
Hopewell,Virginia,51670,37.29186313,-77.29754684
Coshocton,Ohio,39031,40.30096166,-81.91729018
Caroline,Virginia,51033,38.02679129,-77.34901405
Kleberg,Texas,48273,27.42435506,-97.69894948
Franklin,Georgia,13119,34.37525597,-83.23159927
Bibb,Alabama,1007,32.99642064,-87.12511459999997
Clay,Indiana,18021,39.39561833,-87.11723506
Covington,Mississippi,28031,31.63225413,-89.55389939
Crawford,Iowa,19047,42.03718237,-95.3819718
Boone,Iowa,19015,42.03657094,-93.9313999
Haralson,Georgia,13143,33.79602175,-85.21005667
Grainger,Tennessee,47057,36.27469206,-83.51254721
Cass,Nebraska,31025,40.90899107,-96.13971217
Crawford,Missouri,29055,37.97663738,-91.30528104
Susquehanna,Pennsylvania,42115,41.82147784,-75.80071959
Wayne,Mississippi,28153,31.641356870000003,-88.69573913
Jerome,Idaho,16053,42.68891267,-114.2655033
Harris,Georgia,13145,32.73709786,-84.90538572000001
Warren,Pennsylvania,42123,41.81304978,-79.26969577
Grenada,Mississippi,28043,33.77036166,-89.80245083
Mercer,Kentucky,21167,37.81474237,-84.87488475
Meeker,Minnesota,27093,45.12328869,-94.52839455
Anson,North Carolina,37007,34.97403241,-80.09953279
Cherokee,North Carolina,37039,35.1349263,-84.05970864
McDonald,Missouri,29119,36.62869595,-94.34867205
Payette,Idaho,16075,44.00545243,-116.7647695
Burke,Georgia,13033,33.05917989,-81.99928721
Somerset,Maryland,24039,38.1163542,-75.75118623
Pitkin,Colorado,8097,39.21720112,-106.9310027
Emanuel,Georgia,13107,32.59221302,-82.30239915
Sumter,Georgia,13261,32.03650571,-84.19821492
Cherokee,Kansas,20021,37.16928494,-94.8462897
Benton,Iowa,19011,42.08011739,-92.06463573
Barton,Kansas,20009,38.47889676,-98.75636726
Barnwell,South Carolina,45011,33.26679302,-81.43584352
Jones,Texas,48253,32.73997145,-99.87861576
Saline,Illinois,17165,37.75332999,-88.54119706
Douglas,Illinois,17041,39.76768052,-88.21854195
Botetourt,Virginia,51023,37.55531756,-79.80982182
Franklin,Kansas,20059,38.56443815,-95.28644341
Abbeville,South Carolina,45001,34.22333378,-82.46170658
Geneva,Alabama,1061,31.09389027,-85.83572839
Gillespie,Texas,48171,30.31824095,-98.94676915
Big Horn,Montana,30003,45.42335905,-107.492347
Waushara,Wisconsin,55137,44.11324419,-89.24317107
Franklin,Massachusetts,25011,42.58119713,-72.58602547
Milam,Texas,48331,30.78581830000001,-96.97718698
Washington,Iowa,19183,41.33577126000001,-91.71725711
Franklin,Louisiana,22041,32.13675181,-91.67589857
Plaquemines,Louisiana,22075,29.42245447,-89.60322085
Dimmit,Texas,48127,28.42270064,-99.75645095
Franklin,New York,36033,44.59040891,-74.29926032
Morgan,Tennessee,47129,36.13248031,-84.64880098
Stoddard,Missouri,29207,36.85571651,-89.9444155
McDuffie,Georgia,13189,33.47851918,-82.48252774
Jasper,Texas,48241,30.74685667,-94.02667579
Gray,Texas,48179,35.40081878,-100.81292219999999
Saunders,Nebraska,31155,41.2278103,-96.63773905
Trousdale,Tennessee,47169,36.39026213,-86.16087954
George,Mississippi,28039,30.86259065,-88.64436789
Grant,Kentucky,21081,38.64962758,-84.62415957
Staunton,Virginia,51790,38.15965544,-79.05979937
Pierce,Georgia,13229,31.35928155,-82.21598442
Hughes,South Dakota,46065,44.39091534,-99.99661147999998
Fentress,Tennessee,47049,36.38128818,-84.92870012
Ohio,Kentucky,21183,37.47751843,-86.85368087
Richland,Louisiana,22083,32.41391005,-91.76634876
Chippewa,Michigan,26033,46.29552653,-84.54353449
Marengo,Alabama,1091,32.24767634,-87.78796182
Newton,Mississippi,28101,32.40021118,-89.11843336
Lavaca,Texas,48285,29.38508402,-96.93186692
La Paz,Arizona,4012,33.72854224,-113.9810029
Dickinson,Iowa,19059,43.37787725,-95.1510206
Carroll,New Hampshire,33003,43.87498583,-71.20430216
Lamb,Texas,48279,34.06859623,-102.3516289
Burleson,Texas,48051,30.49273808,-96.62158484
Clare,Michigan,26035,43.98794227,-84.84819859999998
Adair,Missouri,29001,40.19058551,-92.60078167
Van Wert,Ohio,39161,40.8554138,-84.59111700000001
Calhoun,Texas,48057,28.47048236,-96.61633945
Washington,Indiana,18175,38.60219804,-86.1049363
Fannin,Georgia,13111,34.86430205,-84.316964
Union,Louisiana,22111,32.83121059,-92.3749373
Randolph,Indiana,18135,40.15734772,-85.01139319
Ouachita,Arkansas,5103,33.58839816,-92.87795984
Johnson,Tennessee,47091,36.45523950000001,-81.84886538
Glenn,California,6021,39.59875897,-122.3938452
Vilas,Wisconsin,55125,46.054673339999994,-89.51719204
Adams,Ohio,39001,38.84541072,-83.4718964
Lee,Virginia,51105,36.70586667,-83.12606515
Jasper,South Carolina,45053,32.43171982,-81.02487495
Scurry,Texas,48415,32.74613808,-100.9162664
Pike,Ohio,39131,39.07634001,-83.06769584
Hutchinson,Texas,48233,35.84006574,-101.3546643
Greene,North Carolina,37079,35.48544173,-77.67578087
Fairfield,South Carolina,45039,34.39287073,-81.1195624
Hart,Georgia,13147,34.34626973,-82.96567682
Gallia,Ohio,39053,38.82708533000001,-82.31647569
Lincoln,Kentucky,21137,37.45475628,-84.65653270000001
Columbia,Arkansas,5027,33.21230701,-93.22642793
Lawrence,Illinois,17101,38.71987914,-87.72884035
Siskiyou,California,6093,41.59198861000001,-122.5407434
Waynesboro,Virginia,51820,38.06451466,-78.90293905
Blaine,Idaho,16013,43.4085812,-113.97526579999999
Jefferson,Oregon,41031,44.62806839,-121.17832
Delaware,New York,36025,42.19837623,-74.96709306
Stevens,Washington,53065,48.40035475,-117.8542701
Marion,Kentucky,21155,37.55218078,-85.26898542
Waseca,Minnesota,27161,44.02211116,-93.58720034
Transylvania,North Carolina,37175,35.203838639999994,-82.79638423
Emmet,Michigan,26047,45.52625509,-84.89083249
Carter,Kentucky,21043,38.31690743,-83.05092385
Pickens,Alabama,1107,33.28094866,-88.08818103
Pike,Georgia,13231,33.09310242,-84.38790389
Tattnall,Georgia,13267,32.04785085,-82.05539188
Minidoka,Idaho,16067,42.85518524,-113.6357257
Mecklenburg,Virginia,51117,36.67882005,-78.36131056
Jennings,Indiana,18079,38.99588883,-85.62710783999998
Martin,Minnesota,27091,43.67429718,-94.55099908
Caroline,Maryland,24011,38.87172293,-75.82904158
Otsego,Michigan,26137,45.02085831,-84.59898295
Wyandot,Ohio,39175,40.84339621,-83.30734173
Barbour,Alabama,1005,31.868263,-85.3871286
Spencer,Indiana,18147,38.01519732,-87.0079644
Karnes,Texas,48255,28.90705334,-97.85960149
Appling,Georgia,13001,31.74847232,-82.28909114
Assumption,Louisiana,22007,29.89946234,-91.06461642
Tishomingo,Mississippi,28141,34.74023475,-88.23917218999999
Rowan,Kentucky,21205,38.19484205,-83.42088935
Morgan,Kentucky,21175,37.92465657,-83.25558245
Shelby,Illinois,17173,39.39133527,-88.80611122
Mahaska,Iowa,19123,41.33521503,-92.64083907
Martin,North Carolina,37117,35.84326734,-77.10860251
Uinta,Wyoming,56041,41.2878183,-110.54757820000002
Winston,Mississippi,28159,33.08747908,-89.03391384999999
Russell,Virginia,51167,36.93028320000001,-82.10095486
Holmes,Florida,12059,30.867474790000003,-85.81319222
Gladwin,Michigan,26051,43.98901072,-84.38774817
Union,Illinois,17181,37.47119609,-89.25548938
Elbert,Georgia,13105,34.11302332,-82.83936147999998
Colusa,California,6011,39.17881957,-122.2331726
Logan,Arkansas,5083,35.21413234,-93.71951016
Union,Georgia,13291,34.82995757,-83.98967069
Routt,Colorado,8107,40.48596505,-106.9905548
Rutland,Vermont,50021,43.57723578,-73.03741676
Somerset,Maine,23025,45.51229767,-69.95995554
Starke,Indiana,18149,41.27890281,-86.64686895
Perry,Missouri,29157,37.70660776,-89.82741088
Gloucester,Virginia,51073,37.40809042,-76.53524337
Grady,Georgia,13131,30.87454847,-84.23418364
Hale,Alabama,1065,32.76039258,-87.63284988
Alpena,Michigan,26007,45.03477666,-83.62212411
Grant,Louisiana,22043,31.598824560000004,-92.56124347000001
Adams,Washington,53001,46.98299757,-118.5601734
Fountain,Indiana,18045,40.12361933,-87.24217689
Conway,Arkansas,5029,35.26205537,-92.70506566000002
Butler,Alabama,1013,31.75300095,-86.68057478
Juncos,Puerto Rico,72077,18.223793,-65.909109
Jackson,West Virginia,54035,38.84263974,-81.68148753
Grayson,Kentucky,21085,37.46231118,-86.34248968
Jackson,Iowa,19097,42.171788240000005,-90.57354837
Ashe,North Carolina,37009,36.43296207,-81.49862729
Brooke,West Virginia,54009,40.27367263,-80.57915332
Orange,Virginia,51137,38.24530219,-78.01560400000002
Lee,Texas,48287,30.31120597,-96.97045773
Sumner,Kansas,20191,37.23682549,-97.47721621
Putnam,Georgia,13237,33.32056115,-83.37552891
Robertson,Texas,48395,31.02539637,-96.51272246
Austin,Texas,48015,29.88548725,-96.27736949000001
Union,South Dakota,46127,42.83112163,-96.6557828
Arkansas,Arkansas,5001,34.29145151,-91.37277296
Jasper,Mississippi,28061,32.01922104,-89.11786866
Langlade,Wisconsin,55067,45.26271619,-89.07483625
Bledsoe,Tennessee,47007,35.59942967999999,-85.20611967
Lampasas,Texas,48281,31.19531316,-98.24206613
Randolph,Arkansas,5121,36.3415714,-91.02455531
Clark,Arkansas,5019,34.04613432,-93.17484713
Calaveras,California,6009,38.20537103,-120.552913
Salem,Virginia,51775,37.2836193,-80.06219455
Wayne,Kentucky,21231,36.80310688,-84.8251971
Crowley,Colorado,8025,38.32608609,-103.7844965
Hocking,Ohio,39073,39.49537927,-82.47991446
Chester,Tennessee,47023,35.42527478,-88.6095842
Fayette,Alabama,1057,33.72076938,-87.73886638
Caswell,North Carolina,37033,36.39312665,-79.33353281
Washington,Nebraska,31177,41.52815707,-96.22019892
Reeves,Texas,48389,31.32323325,-103.6903896
Young,Texas,48503,33.17659707,-98.68790885
Dare,North Carolina,37055,35.66520691,-75.71767334
Coos,Oregon,41011,43.17406868,-124.0594514
Gage,Nebraska,31067,40.26186809,-96.68946704
Talbot,Maryland,24041,38.76618159,-76.10882561
Gurabo,Puerto Rico,72063,18.266461,-65.97970500000001
Boone,West Virginia,54005,38.01974191,-81.69888019
Radford,Virginia,51750,37.12222899,-80.56027320000003
Prince Edward,Virginia,51147,37.22554789,-78.43597949
Clay,Iowa,19041,43.08247182,-95.15096481000002
Cass,Texas,48067,33.07499881,-94.34646905
Woodford,Kentucky,21239,38.04178222,-84.7417556
Kossuth,Iowa,19109,43.20405458,-94.20691791
Avery,North Carolina,37011,36.07569796,-81.92308483000001
Lawrence,Arkansas,5075,36.04188195999999,-91.10867198
Rolette,North Dakota,38079,48.77245354000001,-99.84097493
Sullivan,Indiana,18153,39.08952258,-87.41414469
Dinwiddie,Virginia,51053,37.07544585,-77.63451754
Simpson,Kentucky,21213,36.74058474,-86.58047435
Rio Grande,Puerto Rico,72119,18.346329,-65.813742
Fredericksburg,Virginia,51630,38.297786300000006,-77.4922454
Attala,Mississippi,28007,33.08658803,-89.57838564
New Madrid,Missouri,29143,36.59666326,-89.66070006999999
Livingston,Missouri,29117,39.78110272,-93.54645978
Morgan,Georgia,13211,33.59232073,-83.49129491
Iowa,Wisconsin,55049,43.00050278,-90.13469017
Crawford,Illinois,17033,39.0032229,-87.75954624
Juniata,Pennsylvania,42067,40.53358749,-77.39975129999998
Buckingham,Virginia,51029,37.57242268,-78.52518834
Taylor,Wisconsin,55119,45.21179252,-90.5004405
Mason,Michigan,26105,43.99509218,-86.24988902
Lake,Montana,30047,47.64514965,-114.0898013
Owen,Indiana,18119,39.31145587,-86.83900724
Elmore,Idaho,16039,43.3507101,-115.4701578
Page,Virginia,51139,38.61807452,-78.48797204
Menominee,Michigan,26109,45.58038692,-87.55370409
Churchill,Nevada,32001,39.58105744,-118.3394607
Montague,Texas,48337,33.67521893,-97.72500958
Tama,Iowa,19171,42.07991767,-92.53266945
Allen,Kentucky,21003,36.75197631,-86.19457544
Dodge,Georgia,13091,32.17265114,-83.16948926
Oglala Lakota,South Dakota,46102,43.33749164,-102.5555498
Chickasaw,Mississippi,28017,33.91983202,-88.9481545
Hertford,North Carolina,37091,36.3607755,-76.98104134
Roseau,Minnesota,27135,48.77501878,-95.81079919
Ben Hill,Georgia,13017,31.76095874,-83.22145359
Madison,Florida,12079,30.44396917,-83.47398594
Polk,Tennessee,47139,35.12245443,-84.52075859
Delaware,Iowa,19055,42.47104597,-91.3664492
Crisp,Georgia,13081,31.922895650000005,-83.76811843
Johnson,Kentucky,21115,37.85106354999999,-82.8264322
Falls,Texas,48145,31.25350609,-96.93630086
Mitchell,Georgia,13205,31.22483255,-84.19381821
Meade,Kentucky,21163,37.96163597,-86.21028219
Henry,Missouri,29083,38.38482826,-93.79293734
Montezuma,Colorado,8083,37.33859578999999,-108.5958857
Bond,Illinois,17005,38.88829622,-89.43534887
Otero,Colorado,8089,37.9014485,-103.7173385
Jackson,Louisiana,22049,32.30251776,-92.55692092
Wabasha,Minnesota,27157,44.28424356,-92.23121312
Hempstead,Arkansas,5057,33.73325583,-93.66935133
Cleburne,Arkansas,5023,35.53864922000001,-92.02640019
Drew,Arkansas,5043,33.59035001,-91.71777920999999
Washington,Georgia,13303,32.96711864,-82.79357039000001
Lamar,Georgia,13171,33.07841647,-84.14263877
Jones,Georgia,13169,33.02512137,-83.56019163
Humacao,Puerto Rico,72069,18.145211,-65.810174
Unicoi,Tennessee,47171,36.10890856,-82.43709629
Meriwether,Georgia,13199,33.04163534,-84.68859732000001
Green Lake,Wisconsin,55047,43.80025981,-89.04679553
Mason,West Virginia,54053,38.77071799,-82.02524219
Ashley,Arkansas,5003,33.19153461,-91.7698471
Crockett,Tennessee,47033,35.81830662,-89.14916269
Marshall,Oklahoma,40095,34.02311222,-96.76855464000002
Coos,New Hampshire,33007,44.69063265,-71.30633239
Ray,Missouri,29177,39.3537468,-93.98905744999999
Kingfisher,Oklahoma,40073,35.94530008,-97.94193268
Wyoming,West Virginia,54109,37.612327,-81.54511071
Craig,Oklahoma,40035,36.76268118,-95.20916602
Bennington,Vermont,50003,43.03519828,-73.09048868
Dorado,Puerto Rico,72051,18.436115,-66.278669
St. James,Louisiana,22093,30.02531716,-90.80212061
Fulton,Indiana,18049,41.0469907,-86.26252745
Saline,Nebraska,31151,40.52418865,-97.14085859
Garrett,Maryland,24023,39.52786077,-79.27355126
Cass,Illinois,17017,39.96991073,-90.24734436
Polk,Arkansas,5113,34.48254879,-94.22728802
Murray,Oklahoma,40099,34.48116015,-97.06826283
Hill,Montana,30041,48.62879827,-110.1129252
Roosevelt,New Mexico,35041,34.02097406,-103.47994930000002
Franklin,Vermont,50011,44.85627605,-72.91249563
McIntosh,Oklahoma,40091,35.37235506,-95.66599306
Richland,North Dakota,38077,46.26440648999999,-96.94852979
Hart,Kentucky,21099,37.29943897999999,-85.88461055
Clinton,Missouri,29049,39.6013098,-94.40465394
Texas,Missouri,29215,37.31728859,-91.96564727
Vernon,Wisconsin,55123,43.59422667,-90.8324691
Louisa,Virginia,51109,37.97850256,-77.96274807000002
Jay,Indiana,18075,40.43781032,-85.00576229
Seneca,New York,36099,42.78081007,-76.82497064
Vernon,Missouri,29217,37.8457799,-94.34127305
Montour,Pennsylvania,42093,41.030239869999996,-76.66345939000001
Iosco,Michigan,26069,44.35486835,-83.63484895
McCreary,Kentucky,21147,36.73874143,-84.48102924
Pottawatomie,Kansas,20149,39.37925655,-96.34564657
Winneshiek,Iowa,19191,43.29094334,-91.84422722
Gulf,Florida,12045,29.93543004,-85.24270990000002
O'Brien,Iowa,19141,43.08310673,-95.62474482
Wyoming,Pennsylvania,42131,41.51955538,-76.01074915
Cross,Arkansas,5037,35.29631396,-90.77185818
DeWitt,Texas,48123,29.08101855,-97.35681169999998
Madison,Texas,48313,30.96694679,-95.93003775
Southampton,Virginia,51175,36.72231125,-77.10642712
Freestone,Texas,48161,31.70422788,-96.15072516
Carroll,Ohio,39019,40.5789686,-81.09178213
Mayaguez,Puerto Rico,72097,18.201225738505748,-67.14574978448276
Andrew,Missouri,29003,39.98492163,-94.80163024
Letcher,Kentucky,21133,37.12306748,-82.85346474
Hubbard,Minnesota,27057,47.10778564,-94.91693867999999
Upshur,West Virginia,54097,38.89285061,-80.23689136
Jefferson,Georgia,13163,33.05867328,-82.41609057
Adams,Wisconsin,55001,43.96974651,-89.76782777
Osceola,Michigan,26133,43.98992088,-85.32566756
Cooper,Missouri,29053,38.844478,-92.80896081
Adair,Kentucky,21001,37.10459774,-85.28129668
Union,Tennessee,47173,36.28590426,-83.83651902
Canovanas,Puerto Rico,72029,18.328802,-65.887612
Shelby,Texas,48419,31.79211404,-94.14550696000002
Henry,Alabama,1067,31.51148016,-85.24267944
Columbia,Oregon,41009,45.94464254,-123.0890898
Page,Iowa,19145,40.7393172,-95.1497813
Buchanan,Iowa,19019,42.4709188,-91.83510825
Humphreys,Tennessee,47085,36.03958805,-87.77992872
Carroll,Indiana,18015,40.580783200000006,-86.56198812
Cannon,Tennessee,47015,35.80990797,-86.05738983
Lee,South Carolina,45061,34.16393091,-80.25690730999999
San Juan,Utah,49037,37.62762978,-109.8033714
Houston,Texas,48225,31.31925973,-95.42226208
Clay,South Dakota,46027,42.91296147,-96.97656917
Wilbarger,Texas,48487,34.07945812,-99.24178437
Cheboygan,Michigan,26031,45.44787015,-84.50122149
Hampton,South Carolina,45049,32.77419582,-81.13845571
Concordia,Louisiana,22029,31.44817835,-91.63814433
Nottoway,Virginia,51135,37.1435975,-78.05065922
Hampshire,West Virginia,54027,39.32103553,-78.60826476
Powhatan,Virginia,51145,37.55016038,-77.91267881999998
Fluvanna,Virginia,51065,37.84157909,-78.27715475000001
Cedar,Iowa,19031,41.77233777,-91.13246684
Jeff Davis,Georgia,13161,31.80405727,-82.63724870000001
Teller,Colorado,8119,38.88133511,-105.1614893
Stone,Mississippi,28131,30.79187949,-89.11547539
Walsh,North Dakota,38099,48.36876964,-97.72574783
Holmes,Mississippi,28051,33.12345854,-90.08923538
Berrien,Georgia,13019,31.27590016,-83.22529920000002
Nicholas,West Virginia,54067,38.29617706,-80.79759588
Aroostook,Maine,23003,46.65926321,-68.59841248
Roscommon,Michigan,26143,44.33473082,-84.61067651
Washington,Vermont,50023,44.27343241,-72.61604978
Cook,Georgia,13075,31.16068491,-83.42947229
Northampton,North Carolina,37131,36.41736238,-77.39769443
Ford,Illinois,17053,40.59706922,-88.22350769
Russell,Kentucky,21207,36.99308373,-85.06070117
Orange,Indiana,18117,38.54118920000001,-86.49523093
Elbert,Colorado,8039,39.28656773,-104.1358721
Sullivan,New Hampshire,33019,43.36094111,-72.22203125
Clay,Mississippi,28025,33.65358105,-88.77784255
Atoka,Oklahoma,40005,34.37366573,-96.03802487
Hardin,Iowa,19083,42.38353877,-93.23654611
Zavala,Texas,48507,28.86617238,-99.76050829
Randolph,Alabama,1111,33.29526734,-85.45708830999999
Union,Florida,12125,30.04412971,-82.37497443
Phillips,Arkansas,5107,34.43268455,-90.84800154000001
Dodge,Minnesota,27039,44.02238415,-92.86244324
Fayette,Iowa,19065,42.86271799,-91.8441231
Cherokee,Alabama,1019,34.17805983,-85.60638968
Island,Washington,53029,48.14713305,-122.52164069999999
Perry,Indiana,18123,38.07809328,-86.63741946
Scott,Virginia,51169,36.71466456,-82.60171704
Jackson,Texas,48239,28.954723670000003,-96.57749563
Wright,Iowa,19197,42.73305373,-93.73515113
Panola,Texas,48365,32.163959600000005,-94.30552481
Sawyer,Wisconsin,55113,45.87931905,-91.14504927
Clark,Illinois,17023,39.33425789,-87.78705622
Banks,Georgia,13011,34.35607081,-83.49644388
Warren,Illinois,17187,40.849250209999994,-90.6147432
Ste. Genevieve,Missouri,29186,37.89090059,-90.1949941
Gem,Idaho,16045,44.06482372000001,-116.398376
Moniteau,Missouri,29135,38.63571781,-92.57976951
Andrews,Texas,48003,32.30468633,-102.6376548
Greene,Georgia,13133,33.5769205,-83.17139104
Pike,Illinois,17149,39.62265059,-90.8877017
Harrison,Kentucky,21097,38.44188174,-84.32869741
Jo Daviess,Illinois,17085,42.36542373,-90.21094405
Renville,Minnesota,27129,44.72836381,-94.94553734
Hancock,Illinois,17067,40.40423981,-91.16313899
Monroe,Alabama,1099,31.56729412,-87.36995001
Dickinson,Kansas,20041,38.86600962,-97.15532383
Wayne,Illinois,17191,38.42955355,-88.42586459000002
Hamilton,Iowa,19079,42.38382428,-93.70197703
Neosho,Kansas,20133,37.55862897,-95.30670046
Warren,North Carolina,37185,36.39728256,-78.10652228
Morgan,Missouri,29141,38.4181765,-92.88791859
Pike,Missouri,29163,39.34310674,-91.16980779
Clay,Arkansas,5021,36.36826212,-90.4148172
Okfuskee,Oklahoma,40107,35.46485198,-96.32639983999998
Saluda,South Carolina,45081,34.00795823,-81.72713237
Grundy,Tennessee,47061,35.384337169999995,-85.72142731
Worth,Georgia,13321,31.55162306,-83.85090513
Crawford,Wisconsin,55023,43.23870316,-90.93073686
Harrison,Iowa,19085,41.68330137,-95.81558439
Zapata,Texas,48505,27.00156391,-99.16987152
Tallahatchie,Mississippi,28135,33.95339918,-90.1729398
Pawnee,Oklahoma,40117,36.31743373,-96.7033176
Anderson,Kentucky,21005,38.00671029,-84.99171713
Bertie,North Carolina,37015,36.0688473,-76.96545943
Rabun,Georgia,13241,34.88389445,-83.40304637000001
Clarke,Mississippi,28023,32.04158545,-88.68896219999998
Grant,Arkansas,5053,34.29017991,-92.42320562
Carroll,Illinois,17015,42.06823429,-89.93395545
Chaffee,Colorado,8015,38.74745778,-106.19265729999998
Edgar,Illinois,17045,39.6809186,-87.74759563
Richland,Illinois,17159,38.712409689999994,-88.08475366
Vega Alta,Puerto Rico,72143,18.409346,-66.33725
Paulding,Ohio,39125,41.11676341,-84.5801017
York,Nebraska,31185,40.87272618,-97.59710186
Redwood,Minnesota,27127,44.40555844,-95.25207021
Bourbon,Kentucky,21017,38.205460699999996,-84.21827874
Lincoln,New Mexico,35027,33.74526079,-105.4586166
Mason,Kentucky,21161,38.59471935,-83.82151042999999
Colorado,Texas,48089,29.622098000000005,-96.5273805
Jefferson,Kansas,20087,39.2347941,-95.38289232
Vermillion,Indiana,18165,39.8523352,-87.46160542
Rush,Indiana,18139,39.62002286999999,-85.4655599
Sequatchie,Tennessee,47153,35.36979721,-85.41022136
Seward,Nebraska,31159,40.87241834,-97.139673
Wright,Missouri,29229,37.27029221,-92.46914488
San Lorenzo,Puerto Rico,72129,18.147987,-65.976392
Grant,New Mexico,35017,32.73911281,-108.38278449999999
Ogemaw,Michigan,26129,44.33481032,-84.12725175
Houston,Minnesota,27055,43.67129565,-91.49143057
Benton,Missouri,29015,38.29503305,-93.28756116
Calhoun,Mississippi,28013,33.93683395,-89.33686647
